"DR_NO","Date.Rptd","DATE.OCC","TIME.OCC","AREA","AREA.NAME","Rpt.Dist.No","Part.1.2","Crm.Cd","Crm.Cd.Desc","Mocodes","Vict.Age","Vict.Sex","Vict.Descent","Premis.Cd","Premis.Desc","Weapon.Used.Cd","Weapon.Desc","Status","Status.Desc","Crm.Cd.1","Crm.Cd.2","Crm.Cd.3","Crm.Cd.4","LOCATION","Cross.Street","LAT","LON"
201010629,"07/02/2020 12:00:00 AM","07/02/2020 12:00:00 AM",1130,10,"West Valley",1017,2,624,"BATTERY - SIMPLE ASSAULT","0400 0416 0913 0361 0603",56,"F","H",501,"SINGLE FAMILY DWELLING",400,"STRONG-ARM (HANDS, FIST, FEET OR BODILY FORCE)","IC","Invest Cont",624,NA,NA,NA,"17400    VALERIO                      ST","",34.2054,-118.5125
200211826,"06/26/2020 12:00:00 AM","06/26/2020 12:00:00 AM",1000,2,"Rampart",256,2,624,"BATTERY - SIMPLE ASSAULT","0400 0444 1822",28,"F","H",108,"PARKING LOT",400,"STRONG-ARM (HANDS, FIST, FEET OR BODILY FORCE)","IC","Invest Cont",624,NA,NA,NA,"1700 W  6TH                          ST","",34.0573,-118.2699
210706493,"03/09/2021 12:00:00 AM","03/09/2021 12:00:00 AM",2310,7,"Wilshire",735,1,230,"ASSAULT WITH DEADLY WEAPON, AGGRAVATED ASSAULT","0302 1309 1218 1419 1822",32,"M","H",103,"ALLEY",106,"UNKNOWN FIREARM","AO","Adult Other",230,998,NA,NA,"6TH","LA BREA",34.0649,-118.344
200506733,"03/04/2020 12:00:00 AM","03/03/2020 12:00:00 AM",2000,5,"Harbor",566,2,740,"VANDALISM - FELONY ($400 & OVER, ALL CHURCH VANDALISMS)","0311 1300 0329",46,"M","O",122,"VEHICLE, PASSENGER/TRUCK",NA,"","IC","Invest Cont",740,NA,NA,NA,"400 W  13TH                         ST","",33.7324,-118.2857
221804700,"01/15/2022 12:00:00 AM","01/15/2022 12:00:00 AM",1315,18,"Southeast",1826,2,624,"BATTERY - SIMPLE ASSAULT","0913 1276 0416 0432",20,"F","H",502,"MULTI-UNIT DWELLING (APARTMENT, DUPLEX, ETC)",400,"STRONG-ARM (HANDS, FIST, FEET OR BODILY FORCE)","IC","Invest Cont",624,NA,NA,NA,"9100    COMPTON                      AV","",33.9543,-118.2475
201614132,"10/22/2020 12:00:00 AM","10/22/2020 12:00:00 AM",2000,16,"Foothill",1684,2,930,"CRIMINAL THREATS - NO WEAPON DISPLAYED","1822 0443",55,"M","B",101,"STREET",511,"VERBAL THREAT","IC","Invest Cont",930,NA,NA,NA,"LANKERSHIM","STRATHERN",34.2157,-118.3878
211111349,"07/30/2021 12:00:00 AM","03/18/2021 12:00:00 AM",1600,11,"Northeast",1178,2,626,"INTIMATE PARTNER - SIMPLE ASSAULT","0401 0913 1814",33,"M","H",501,"SINGLE FAMILY DWELLING",400,"STRONG-ARM (HANDS, FIST, FEET OR BODILY FORCE)","AO","Adult Other",626,NA,NA,NA,"400    ISABEL                       ST","",34.0899,-118.2199
211505731,"02/16/2021 12:00:00 AM","02/15/2021 12:00:00 AM",2200,15,"N Hollywood",1535,1,510,"VEHICLE - STOLEN","",0,"","",101,"STREET",NA,"","IC","Invest Cont",510,NA,NA,NA,"11400    MIRANDA                      ST","",34.1749,-118.379
220811675,"06/09/2022 12:00:00 AM","06/07/2022 12:00:00 AM",1200,8,"West LA",821,1,480,"BIKE - STOLEN","0344 1822",31,"F","W",501,"SINGLE FAMILY DWELLING",NA,"","IC","Invest Cont",480,NA,NA,NA,"17000    PACIFIC COAST                HY","",34.0387,-118.5439
201409177,"04/02/2020 12:00:00 AM","04/02/2020 12:00:00 AM",1840,14,"Pacific",1469,1,210,"ROBBERY","0344 1822 0342 0432 0355",18,"F","W",102,"SIDEWALK",515,"PHYSICAL PRESENCE","IC","Invest Cont",210,NA,NA,NA,"7200 S  LA CIENEGA                   BL","",33.9761,-118.3726
210319382,"11/20/2021 12:00:00 AM","11/06/2021 12:00:00 AM",2130,3,"Southwest",376,1,230,"ASSAULT WITH DEADLY WEAPON, AGGRAVATED ASSAULT","1309 0342 1822 0302 1257",0,"M","B",501,"SINGLE FAMILY DWELLING",102,"HAND GUN","IC","Invest Cont",230,NA,NA,NA,"3900    DENKER                       AV","",34.0153,-118.3045
210708950,"05/23/2021 12:00:00 AM","05/23/2021 12:00:00 AM",800,7,"Wilshire",701,1,320,"BURGLARY, ATTEMPTED","1607",0,"X","X",503,"HOTEL",NA,"","IC","Invest Cont",320,NA,NA,NA,"7900    MELROSE                      AV","",34.0838,-118.3621
211108065,"04/28/2021 12:00:00 AM","04/28/2021 12:00:00 AM",1900,11,"Northeast",1134,1,510,"VEHICLE - STOLEN","",0,"","",101,"STREET",NA,"","IC","Invest Cont",510,NA,NA,NA,"3200    VERDUGO                      RD","",34.1098,-118.2367
201209948,"03/25/2020 12:00:00 AM","03/24/2020 12:00:00 AM",700,12,"77th Street",1211,1,310,"BURGLARY","1822 1609 0329 0344 1267",26,"M","O",501,"SINGLE FAMILY DWELLING",NA,"","IC","Invest Cont",310,NA,NA,NA,"5400    6TH                          AV","",33.9932,-118.3236
200307854,"03/02/2020 12:00:00 AM","03/02/2020 12:00:00 AM",1700,3,"Southwest",393,2,624,"BATTERY - SIMPLE ASSAULT","0400 0913 1202",60,"M","B",501,"SINGLE FAMILY DWELLING",500,"UNKNOWN WEAPON/OTHER WEAPON","IC","Invest Cont",624,NA,NA,NA,"4200    MC CLUNG                     DR","",34.0085,-118.3341
220508084,"04/16/2022 12:00:00 AM","04/16/2022 12:00:00 AM",1250,5,"Harbor",512,2,745,"VANDALISM - MISDEAMEANOR ($399 OR UNDER)","1300 0329",56,"M","H",122,"VEHICLE, PASSENGER/TRUCK",NA,"","IC","Invest Cont",745,NA,NA,NA,"1300    ANAHEIM                      ST","",33.7835,-118.3
220617200,"10/06/2022 12:00:00 AM","10/06/2022 12:00:00 AM",1800,6,"Hollywood",643,2,624,"BATTERY - SIMPLE ASSAULT","0400 0416 1822 2002 0444 0334 0443 0446 1206",56,"M","W",102,"SIDEWALK",400,"STRONG-ARM (HANDS, FIST, FEET OR BODILY FORCE)","IC","Invest Cont",624,NA,NA,NA,"1500 N  LA BREA                      AV","",34.1007,-118.3494
211704083,"01/02/2021 12:00:00 AM","01/02/2021 12:00:00 AM",1000,17,"Devonshire",1767,2,740,"VANDALISM - FELONY ($400 & OVER, ALL CHURCH VANDALISMS)","0329",53,"F","B",104,"DRIVEWAY",NA,"","IC","Invest Cont",740,NA,NA,NA,"18600    PRAIRIE                      ST","",34.2442,-118.5362
200709252,"05/14/2020 12:00:00 AM","05/14/2020 12:00:00 AM",2025,7,"Wilshire",749,1,210,"ROBBERY","1822 0325 1402 0945",19,"M","O",402,"MARKET",201,"KNIFE WITH BLADE OVER 6 INCHES IN LENGTH","IC","Invest Cont",210,998,NA,NA,"900    CRENSHAW                     BL","",34.0585,-118.3262
210121263,"11/29/2021 12:00:00 AM","11/29/2021 12:00:00 AM",1250,1,"Central",152,2,624,"BATTERY - SIMPLE ASSAULT","0917 1822 0448 2003",32,"F","H",738,"LIBRARY",400,"STRONG-ARM (HANDS, FIST, FEET OR BODILY FORCE)","AO","Adult Other",624,NA,NA,NA,"600 W  5TH                          ST","",34.0502,-118.2539
221306257,"02/14/2022 12:00:00 AM","02/13/2022 12:00:00 AM",2150,13,"Newton",1371,1,510,"VEHICLE - STOLEN","",0,"","",101,"STREET",NA,"","AA","Adult Arrest",510,NA,NA,NA,"5300 S  BROADWAY","",33.9942,-118.2783
201405970,"02/01/2020 12:00:00 AM","02/01/2020 12:00:00 AM",1658,14,"Pacific",1494,1,440,"THEFT PLAIN - PETTY ($950 & UNDER)","1822 0344",39,"M","O",212,"TRANSPORTATION FACILITY (AIRPORT)",NA,"","AO","Adult Other",440,NA,NA,NA,"300    WORLD                        WY","",33.944,-118.4073
221415738,"08/27/2022 12:00:00 AM","08/26/2022 12:00:00 AM",730,14,"Pacific",1434,1,210,"ROBBERY","2004 1822 1236 0334 0445 0432 0945 0325",0,"X","X",401,"MINI-MART",207,"OTHER KNIFE","AA","Adult Arrest",210,NA,NA,NA,"12400    VENICE                       BL","",33.9974,-118.4463
210509016,"05/11/2021 12:00:00 AM","05/10/2021 12:00:00 AM",1800,5,"Harbor",569,1,440,"THEFT PLAIN - PETTY ($950 & UNDER)","1309 0913 0344 1310 1814",20,"F","H",122,"VEHICLE, PASSENGER/TRUCK",NA,"","IC","Invest Cont",440,NA,NA,NA,"1100    NAGOYA                       WY","",33.7322,-118.2769
211812264,"06/18/2021 12:00:00 AM","06/18/2021 12:00:00 AM",2000,18,"Southeast",1842,1,440,"THEFT PLAIN - PETTY ($950 & UNDER)","0344 1822",31,"M","H",501,"SINGLE FAMILY DWELLING",NA,"","IC","Invest Cont",440,NA,NA,NA,"10900 S  FIGUEROA                     ST","",33.9369,-118.2826
221319440,"10/17/2022 12:00:00 AM","05/14/2020 12:00:00 AM",2100,13,"Newton",1367,2,624,"BATTERY - SIMPLE ASSAULT","0416 2000 0913 0444",0,"","",121,"YARD (RESIDENTIAL/BUSINESS)",400,"STRONG-ARM (HANDS, FIST, FEET OR BODILY FORCE)","IC","Invest Cont",624,NA,NA,NA,"VERNON                       AV","ALAMEDA                      ST",34.0039,-118.2392
201515679,"09/27/2020 12:00:00 AM","06/25/2020 12:00:00 AM",1255,15,"N Hollywood",1529,2,354,"THEFT OF IDENTITY","0928",42,"M","H",501,"SINGLE FAMILY DWELLING",NA,"","IC","Invest Cont",354,NA,NA,NA,"10600    VICTORY                      BL","",34.186,-118.3616
221807167,"03/09/2022 12:00:00 AM","03/09/2022 12:00:00 AM",630,18,"Southeast",1841,1,230,"ASSAULT WITH DEADLY WEAPON, AGGRAVATED ASSAULT","1822 1300 0329 1307 0416 0432",67,"M","B",102,"SIDEWALK",500,"UNKNOWN WEAPON/OTHER WEAPON","IC","Invest Cont",230,NA,NA,NA,"800 W  IMPERIAL                     HY","",33.9367,-118.2871
201819050,"10/17/2020 12:00:00 AM","10/17/2020 12:00:00 AM",2350,18,"Southeast",1844,1,230,"ASSAULT WITH DEADLY WEAPON, AGGRAVATED ASSAULT","1822 1100 1300 1310 0430",26,"F","B",101,"STREET",106,"UNKNOWN FIREARM","IC","Invest Cont",230,NA,NA,NA,"108TH                        ST","AVALON                       BL",33.9383,-118.2652
200500543,"02/08/2020 12:00:00 AM","02/08/2020 12:00:00 AM",1545,5,"Harbor",581,2,860,"BATTERY WITH SEXUAL CONTACT","0448 0500 0551 1814 0913",53,"F","W",501,"SINGLE FAMILY DWELLING",400,"STRONG-ARM (HANDS, FIST, FEET OR BODILY FORCE)","AO","Adult Other",860,NA,NA,NA,"2600    GUNNELL                      AV","",33.7242,-118.3193
211220902,"10/04/2021 12:00:00 AM","10/04/2021 12:00:00 AM",1945,12,"77th Street",1251,1,440,"THEFT PLAIN - PETTY ($950 & UNDER)","0344 1822",29,"M","H",108,"PARKING LOT",NA,"","IC","Invest Cont",440,NA,NA,NA,"FLORENCE","CRENSHAW",33.9745,-118.3309
221015205,"10/13/2022 12:00:00 AM","10/13/2022 12:00:00 AM",1553,10,"West Valley",1015,2,956,"LETTERS, LEWD  -  TELEPHONE CALLS, LEWD","0913 1906",31,"M","A",101,"STREET",NA,"","IC","Invest Cont",956,NA,NA,NA,"7200    YARMOUTH                     AV","",34.2012,-118.5197
201306182,"02/08/2020 12:00:00 AM","02/08/2020 12:00:00 AM",1135,13,"Newton",1343,1,510,"VEHICLE - STOLEN","",0,"","",101,"STREET",NA,"","IC","Invest Cont",510,NA,NA,NA,"3500 S  SAN PEDRO                    ST","",34.0145,-118.2658
201607139,"03/15/2020 12:00:00 AM","03/14/2020 12:00:00 AM",2300,16,"Foothill",1641,1,330,"BURGLARY FROM VEHICLE","0344 1307",22,"F","H",101,"STREET",NA,"","IC","Invest Cont",330,NA,NA,NA,"HADDON","GARBER",34.2545,-118.4217
210813201,"08/24/2021 12:00:00 AM","08/24/2021 12:00:00 AM",2000,8,"West LA",841,1,310,"BURGLARY","0344 1221 1606 1822 1267 2004",42,"M","A",505,"MOTEL",NA,"","IC","Invest Cont",310,NA,NA,NA,"12000    SANTA MONICA                 BL","",34.0423,-118.4656
211001031,"10/21/2021 12:00:00 AM","10/21/2021 12:00:00 AM",1930,10,"West Valley",1033,1,220,"ATTEMPTED ROBBERY","2051 2004 0910 0337 2049 1822 1420 0421",38,"F","H",801,"MTA BUS",511,"VERBAL THREAT","AA","Adult Arrest",220,998,NA,NA,"RESEDA                       BL","VICTORY                      BL",34.1866,-118.536
210415086,"11/18/2021 12:00:00 AM","11/18/2021 12:00:00 AM",1725,4,"Hollenbeck",457,2,626,"INTIMATE PARTNER - SIMPLE ASSAULT","0913 2000 1814 0444 0448",36,"M","H",502,"MULTI-UNIT DWELLING (APARTMENT, DUPLEX, ETC)",400,"STRONG-ARM (HANDS, FIST, FEET OR BODILY FORCE)","AO","Adult Other",626,NA,NA,NA,"600 N  SOTO                         ST","",34.0495,-118.2061
211219268,"09/08/2021 12:00:00 AM","09/08/2021 12:00:00 AM",1350,12,"77th Street",1256,1,510,"VEHICLE - STOLEN","",0,"","",101,"STREET",NA,"","IC","Invest Cont",510,NA,NA,NA,"7200 S  BROADWAY","",33.9727,-118.285
210707781,"04/17/2021 12:00:00 AM","04/17/2021 12:00:00 AM",1400,7,"Wilshire",702,2,664,"BUNCO, PETTY THEFT","1309 0344",18,"M","H",102,"SIDEWALK",NA,"","IC","Invest Cont",664,NA,NA,NA,"7500    MELROSE                      AV","",34.0837,-118.3533
200612522,"07/13/2020 12:00:00 AM","07/11/2020 12:00:00 AM",2310,6,"Hollywood",636,1,440,"THEFT PLAIN - PETTY ($950 & UNDER)","0344 1822",0,"X","X",402,"MARKET",NA,"","IC","Invest Cont",440,NA,NA,NA,"6600 W  HOLLYWOOD                    BL","",34.1034,-118.3325
200604028,"01/01/2020 12:00:00 AM","01/01/2020 12:00:00 AM",615,6,"Hollywood",663,2,624,"BATTERY - SIMPLE ASSAULT","0416",32,"M","W",108,"PARKING LOT",400,"STRONG-ARM (HANDS, FIST, FEET OR BODILY FORCE)","IC","Invest Cont",624,NA,NA,NA,"6700    SANTA MONICA                 BL","",34.0907,-118.3363
201715285,"11/12/2020 12:00:00 AM","11/11/2020 12:00:00 AM",1930,17,"Devonshire",1754,1,510,"VEHICLE - STOLEN","",0,"","",101,"STREET",NA,"","IC","Invest Cont",510,NA,NA,NA,"18500    MAYALL                       ST","",34.2533,-118.5361
211305849,"02/11/2021 12:00:00 AM","02/11/2021 12:00:00 AM",1940,13,"Newton",1343,2,740,"VANDALISM - FELONY ($400 & OVER, ALL CHURCH VANDALISMS)","1300 0329 1307",0,"X","X",122,"VEHICLE, PASSENGER/TRUCK",NA,"","IC","Invest Cont",740,NA,NA,NA,"MARTIN LUTHER KING JR        BL","AVALON",34.0111,-118.2653
201217272,"07/27/2020 12:00:00 AM","07/13/2020 12:00:00 AM",900,12,"77th Street",1213,1,440,"THEFT PLAIN - PETTY ($950 & UNDER)","0344 1822",35,"M","B",501,"SINGLE FAMILY DWELLING",NA,"","IC","Invest Cont",440,NA,NA,NA,"5400 S  WILTON                       PL","",33.9927,-118.315
202110258,"06/08/2020 12:00:00 AM","06/08/2020 12:00:00 AM",150,21,"Topanga",2115,2,624,"BATTERY - SIMPLE ASSAULT","0906 0416",24,"M","H",108,"PARKING LOT",400,"STRONG-ARM (HANDS, FIST, FEET OR BODILY FORCE)","AA","Adult Arrest",624,NA,NA,NA,"21900    LANARK                       ST","",34.2176,-118.6031
212004739,"01/19/2021 12:00:00 AM","01/19/2021 12:00:00 AM",1000,20,"Olympic",2022,2,624,"BATTERY - SIMPLE ASSAULT","0603 0913 0429 0444 0361",34,"M","A",502,"MULTI-UNIT DWELLING (APARTMENT, DUPLEX, ETC)",400,"STRONG-ARM (HANDS, FIST, FEET OR BODILY FORCE)","IC","Invest Cont",624,NA,NA,NA,"4200 W  4TH                          ST","",34.0672,-118.311
210618510,"11/03/2021 12:00:00 AM","11/02/2021 12:00:00 AM",1045,6,"Hollywood",645,1,341,"THEFT-GRAND ($950.01 & OVER)EXCPT,GUNS,FOWL,LIVESTK,PROD","0344 1822 1501",29,"F","O",116,"OTHER/OUTSIDE",NA,"","IC","Invest Cont",341,NA,NA,NA,"1700 N  ORANGE                       DR","",34.1015,-118.3417
220507769,"04/09/2022 12:00:00 AM","04/08/2022 12:00:00 AM",300,5,"Harbor",584,1,331,"THEFT FROM MOTOR VEHICLE - GRAND ($950.01 AND OVER)","0344 0385 1202 1300",80,"F","W",104,"DRIVEWAY",NA,"","IC","Invest Cont",331,NA,NA,NA,"3600    ALMERIA                      ST","",33.7149,-118.3019
221814285,"07/14/2022 12:00:00 AM","07/14/2022 12:00:00 AM",2150,18,"Southeast",1881,1,343,"SHOPLIFTING-GRAND THEFT ($950.01 & OVER)","0104 1822 0325 0202",0,"F","H",405,"CLOTHING STORE",NA,"","IC","Invest Cont",343,NA,NA,NA,"700 W  REDONDO BEACH                BL","",33.8926,-118.2874
211709542,"06/15/2021 12:00:00 AM","06/09/2021 12:00:00 AM",2306,17,"Devonshire",1701,2,940,"EXTORTION","1823 1202 1913 1915 0913 0337",69,"M","W",501,"SINGLE FAMILY DWELLING",511,"VERBAL THREAT","IC","Invest Cont",940,NA,NA,NA,"11900    MARIPOSA BAY                 LN","",34.2869,-118.5689
210516016,"11/13/2021 12:00:00 AM","11/12/2021 12:00:00 AM",1930,5,"Harbor",504,1,330,"BURGLARY FROM VEHICLE","0344 1302 1612",49,"M","H",108,"PARKING LOT",NA,"","IC","Invest Cont",330,NA,NA,NA,"1400 W  KNOX                         ST","",33.8542,-118.2994
201409266,"04/04/2020 12:00:00 AM","04/04/2020 12:00:00 AM",327,14,"Pacific",1472,1,320,"BURGLARY, ATTEMPTED","1607 0397 1501 1402",0,"X","X",203,"OTHER BUSINESS",NA,"","AO","Adult Other",320,998,NA,NA,"300    CULVER                       BL","",33.9596,-118.4476
211006188,"03/13/2021 12:00:00 AM","03/13/2021 12:00:00 AM",1000,10,"West Valley",1033,2,626,"INTIMATE PARTNER - SIMPLE ASSAULT","2000 1813 0913 1309 0448 0400",48,"F","H",102,"SIDEWALK",400,"STRONG-ARM (HANDS, FIST, FEET OR BODILY FORCE)","AO","Adult Other",626,NA,NA,NA,"6200    RESEDA                       BL","",34.1847,-118.5441
212016692,"11/06/2021 12:00:00 AM","11/06/2021 12:00:00 AM",1207,20,"Olympic",2019,2,624,"BATTERY - SIMPLE ASSAULT","0319 0416 0446 1822",21,"M","H",242,"DISCOUNT STORE (99 CENT,DOLLAR,ETC.",400,"STRONG-ARM (HANDS, FIST, FEET OR BODILY FORCE)","AO","Adult Other",624,NA,NA,NA,"100 S  VERMONT                      AV","",34.0728,-118.2917
211606698,"04/06/2021 12:00:00 AM","04/06/2021 12:00:00 AM",510,16,"Foothill",1654,1,210,"ROBBERY","0344 0421 0945",0,"M","X",401,"MINI-MART",511,"VERBAL THREAT","IC","Invest Cont",210,NA,NA,NA,"10700    GLENOAKS                     BL","",34.264,-118.4012
210608372,"04/13/2021 12:00:00 AM","04/13/2021 12:00:00 AM",400,6,"Hollywood",643,1,210,"ROBBERY","0344 1309 0906 1822 1300 0334",31,"M","H",101,"STREET",400,"STRONG-ARM (HANDS, FIST, FEET OR BODILY FORCE)","IC","Invest Cont",210,NA,NA,NA,"SELMA","SCHRADER",34.1007,-118.3494
210811909,"07/20/2021 12:00:00 AM","07/04/2021 12:00:00 AM",1,8,"West LA",855,2,354,"THEFT OF IDENTITY","0100",33,"M","W",501,"SINGLE FAMILY DWELLING",NA,"","IC","Invest Cont",354,NA,NA,NA,"1600    GREENFIELD                   AV","",34.049,-118.4417
220509358,"05/21/2022 12:00:00 AM","05/21/2022 12:00:00 AM",1530,5,"Harbor",526,1,210,"ROBBERY","0913 0344 0104 0334 0202",0,"X","X",256,"",102,"HAND GUN","IC","Invest Cont",210,998,NA,NA,"100 W  ANAHEIM                      ST","",33.78,-118.2624
201411125,"05/19/2020 12:00:00 AM","05/02/2020 12:00:00 AM",2200,14,"Pacific",1483,1,420,"THEFT FROM MOTOR VEHICLE - PETTY ($950 & UNDER)","0344",25,"M","O",707,"GARAGE/CARPORT",NA,"","IC","Invest Cont",420,NA,NA,NA,"9300    LINCOLN                      BL","",33.9552,-118.4141
201108382,"04/10/2020 12:00:00 AM","03/20/2020 12:00:00 AM",1237,11,"Northeast",1118,2,626,"INTIMATE PARTNER - SIMPLE ASSAULT","2000 1814 0446",35,"F","H",102,"SIDEWALK",400,"STRONG-ARM (HANDS, FIST, FEET OR BODILY FORCE)","AO","Adult Other",626,NA,NA,NA,"600 N  AVE 56","",34.1159,-118.1976
211011605,"08/24/2021 12:00:00 AM","08/24/2021 12:00:00 AM",1000,10,"West Valley",1009,1,230,"ASSAULT WITH DEADLY WEAPON, AGGRAVATED ASSAULT","0445 0400 0913 1402 1817 0361 2004 1218",27,"F","H",102,"SIDEWALK",312,"PIPE/METAL PIPE","AO","Adult Other",230,998,NA,NA,"HASKELL","ROSCOE",34.2214,-118.4749
211707018,"03/29/2021 12:00:00 AM","03/29/2021 12:00:00 AM",1900,17,"Devonshire",1767,2,625,"OTHER ASSAULT","1300 1822 0356",38,"M","H",123,"PARKING UNDERGROUND/BUILDING",500,"UNKNOWN WEAPON/OTHER WEAPON","IC","Invest Cont",625,NA,NA,NA,"9500    RESEDA                       BL","",34.2427,-118.5361
201409865,"04/21/2020 12:00:00 AM","04/20/2020 12:00:00 AM",1630,14,"Pacific",1469,1,421,"THEFT FROM MOTOR VEHICLE - ATTEMPT","0344 1300",0,"X","X",710,"OTHER PREMISE",NA,"","IC","Invest Cont",421,NA,NA,NA,"6900    LA TIJERA                    BL","",33.9761,-118.3732
220110345,"04/13/2022 12:00:00 AM","04/02/2022 12:00:00 AM",345,1,"Central",162,1,440,"THEFT PLAIN - PETTY ($950 & UNDER)","2032 0345 0910 0344 1822",30,"F","B",903,"MTA - RED LINE - 7TH AND METRO CENTER",NA,"","IC","Invest Cont",440,NA,NA,NA,"7TH                          ST","FLOWER                       ST",34.049,-118.2592
210615743,"09/11/2021 12:00:00 AM","09/11/2021 12:00:00 AM",325,6,"Hollywood",639,2,624,"BATTERY - SIMPLE ASSAULT","1822 0400 0416",0,"M","O",108,"PARKING LOT",400,"STRONG-ARM (HANDS, FIST, FEET OR BODILY FORCE)","IC","Invest Cont",624,NA,NA,NA,"5100    HOLLYWOOD                    BL","",34.1036,-118.3049
200118064,"09/16/2020 12:00:00 AM","09/16/2020 12:00:00 AM",2115,1,"Central",185,2,626,"INTIMATE PARTNER - SIMPLE ASSAULT","0416 1813",27,"F","A",502,"MULTI-UNIT DWELLING (APARTMENT, DUPLEX, ETC)",500,"UNKNOWN WEAPON/OTHER WEAPON","IC","Invest Cont",626,NA,NA,NA,"1200 S  BROADWAY","",34.0377,-118.2607
201411993,"06/07/2020 12:00:00 AM","06/07/2020 12:00:00 AM",2300,14,"Pacific",1468,2,745,"VANDALISM - MISDEAMEANOR ($399 OR UNDER)","0329",19,"F","H",502,"MULTI-UNIT DWELLING (APARTMENT, DUPLEX, ETC)",NA,"","AO","Adult Other",745,NA,NA,NA,"11800    ALLIN                        ST","",33.9924,-118.4105
200900911,"11/19/2020 12:00:00 AM","11/19/2020 12:00:00 AM",1320,9,"Van Nuys",905,1,230,"ASSAULT WITH DEADLY WEAPON, AGGRAVATED ASSAULT","0416 0445 1402 2004 0906 1822 0371 1414",36,"M","H",101,"STREET",305,"FIXED OBJECT","AA","Adult Arrest",230,998,NA,NA,"7300    VISTA DEL MONTE              AV","",34.203,-118.4501
201105413,"02/01/2020 12:00:00 AM","01/31/2020 12:00:00 AM",1800,11,"Northeast",1128,1,310,"BURGLARY","0344 1609",80,"M","W",501,"SINGLE FAMILY DWELLING",NA,"","IC","Invest Cont",310,NA,NA,NA,"6900 N  FIGUEROA                     ST","",34.1276,-118.1872
212016878,"11/11/2021 12:00:00 AM","11/08/2021 12:00:00 AM",1941,20,"Olympic",2022,2,928,"THREATENING PHONE CALLS/LETTERS","0910 0421 1822",32,"M","H",922,"MTA - PURPLE LINE - WILSHIRE/WESTERN",511,"VERBAL THREAT","IC","Invest Cont",928,NA,NA,NA,"WILSHIRE","WESTERN",34.0617,-118.3091
221004804,"01/23/2022 12:00:00 AM","11/23/2020 12:00:00 AM",1435,10,"West Valley",1063,2,354,"THEFT OF IDENTITY","1822",61,"M","B",502,"MULTI-UNIT DWELLING (APARTMENT, DUPLEX, ETC)",NA,"","IC","Invest Cont",354,NA,NA,NA,"18600    VENTURA                      BL","",34.1698,-118.5386
211821371,"12/10/2021 12:00:00 AM","12/10/2021 12:00:00 AM",1200,18,"Southeast",1832,1,510,"VEHICLE - STOLEN","",0,"","",101,"STREET",NA,"","IC","Invest Cont",510,NA,NA,NA,"104TH                        ST","WALL                         ST",33.9419,-118.2717
211015130,"11/30/2021 12:00:00 AM","11/29/2021 12:00:00 AM",2000,10,"West Valley",1025,2,740,"VANDALISM - FELONY ($400 & OVER, ALL CHURCH VANDALISMS)","1822 0329 1300",56,"F","B",122,"VEHICLE, PASSENGER/TRUCK",NA,"","IC","Invest Cont",740,NA,NA,NA,"17700    SHERMAN                      WY","",34.2011,-118.5191
221913415,"08/19/2022 12:00:00 AM","08/17/2022 12:00:00 AM",2000,19,"Mission",1921,1,440,"THEFT PLAIN - PETTY ($950 & UNDER)","0344",30,"M","H",501,"SINGLE FAMILY DWELLING",NA,"","IC","Invest Cont",440,NA,NA,NA,"12500    HADDON                       AV","",34.2985,-118.4687
221207440,"03/05/2022 12:00:00 AM","03/05/2022 12:00:00 AM",430,12,"77th Street",1248,1,510,"VEHICLE - STOLEN","",0,"","",101,"STREET",NA,"","IC","Invest Cont",510,NA,NA,NA,"6500 S  HOOVER                       ST","",33.9792,-118.2893
211116507,"12/16/2021 12:00:00 AM","12/14/2021 12:00:00 AM",130,11,"Northeast",1109,1,331,"THEFT FROM MOTOR VEHICLE - GRAND ($950.01 AND OVER)","0385",36,"F","W",104,"DRIVEWAY",NA,"","IC","Invest Cont",331,NA,NA,NA,"5100    DAHLIA                       DR","",34.1395,-118.1997
201300873,"07/23/2020 12:00:00 AM","07/22/2020 12:00:00 AM",945,13,"Newton",1352,1,761,"BRANDISH WEAPON","1822 0906 1402 0907 1419 1407 0334",26,"M","H",101,"STREET",102,"HAND GUN","AA","Adult Arrest",761,998,NA,NA,"AVALON                       BL","VERNON                       AV",34.0039,-118.2653
211711931,"08/12/2021 12:00:00 AM","08/09/2021 12:00:00 AM",1,17,"Devonshire",1785,1,330,"BURGLARY FROM VEHICLE","1602 0397 0344",0,"X","X",221,"PUBLIC STORAGE",NA,"","IC","Invest Cont",330,NA,NA,NA,"18500    EDDY                         ST","",34.2295,-118.5367
211321046,"12/30/2021 12:00:00 AM","12/29/2021 12:00:00 AM",2000,13,"Newton",1371,1,510,"VEHICLE - STOLEN","",0,"","",101,"STREET",NA,"","IC","Invest Cont",510,NA,NA,NA,"BROADWAY","52ND                         PL",33.9947,-118.2783
210619490,"11/23/2021 12:00:00 AM","11/23/2021 12:00:00 AM",200,6,"Hollywood",643,1,220,"ATTEMPTED ROBBERY","1822 0416 0308 0450",18,"F","H",101,"STREET",106,"UNKNOWN FIREARM","IC","Invest Cont",220,NA,NA,NA,"FORMOSA                      AV","N  SUNSET                       BL",34.098,-118.3468
211423134,"12/17/2021 12:00:00 AM","12/16/2021 12:00:00 AM",2000,14,"Pacific",1406,1,330,"BURGLARY FROM VEHICLE","0321 0344 1300 1307 1402 1609",27,"F","W",707,"GARAGE/CARPORT",500,"UNKNOWN WEAPON/OTHER WEAPON","IC","Invest Cont",330,998,NA,NA,"3700    MENTONE                      AV","",34.0199,-118.405
201810319,"04/29/2020 12:00:00 AM","04/29/2020 12:00:00 AM",1950,18,"Southeast",1871,2,740,"VANDALISM - FELONY ($400 & OVER, ALL CHURCH VANDALISMS)","1822 1300 1307 0329",40,"M","B",122,"VEHICLE, PASSENGER/TRUCK",304,"CLUB/BAT","IC","Invest Cont",740,NA,NA,NA,"ROSECRANS                    AV","HOOVER",33.9024,-118.2871
200114362,"07/05/2020 12:00:00 AM","07/04/2020 12:00:00 AM",1100,1,"Central",139,1,331,"THEFT FROM MOTOR VEHICLE - GRAND ($950.01 AND OVER)","0344 0352 1822 1606 1300",39,"M","B",123,"PARKING UNDERGROUND/BUILDING",NA,"","IC","Invest Cont",331,NA,NA,NA,"900 E  3RD                          ST","",34.0459,-118.2352
220215596,"08/31/2022 12:00:00 AM","08/31/2022 12:00:00 AM",300,2,"Rampart",231,1,420,"THEFT FROM MOTOR VEHICLE - PETTY ($950 & UNDER)","",0,"","",101,"STREET",NA,"","IC","Invest Cont",420,NA,NA,NA,"BEVERLY                      BL","OCCIDENTAL                   BL",34.0709,-118.2801
221206038,"02/07/2022 12:00:00 AM","02/07/2022 12:00:00 AM",2100,12,"77th Street",1268,2,745,"VANDALISM - MISDEAMEANOR ($399 OR UNDER)","0329 2002",24,"F","B",501,"SINGLE FAMILY DWELLING",NA,"","IC","Invest Cont",745,NA,NA,NA,"100 E  84TH                         ST","",33.9628,-118.2739
200121746,"11/30/2020 12:00:00 AM","11/29/2020 12:00:00 AM",2201,1,"Central",171,1,510,"VEHICLE - STOLEN","",0,"","",707,"GARAGE/CARPORT",NA,"","AA","Adult Arrest",510,NA,NA,NA,"900 W  OLYMPIC                      BL","",34.0454,-118.2658
200711347,"07/06/2020 12:00:00 AM","07/03/2020 12:00:00 AM",1000,7,"Wilshire",747,1,331,"THEFT FROM MOTOR VEHICLE - GRAND ($950.01 AND OVER)","1300 1601 0344",46,"F","W",122,"VEHICLE, PASSENGER/TRUCK",NA,"","IC","Invest Cont",331,NA,NA,NA,"800 S  MANSFIELD                    AV","",34.0588,-118.3419
220307469,"03/09/2022 12:00:00 AM","03/09/2022 12:00:00 AM",2105,3,"Southwest",376,1,231,"ASSAULT WITH DEADLY WEAPON ON POLICE OFFICER","0906 1816 1212 0917 0416 1309 0913",21,"M","X",108,"PARKING LOT",307,"VEHICLE","AA","Adult Arrest",231,NA,NA,NA,"3900 S  WESTERN                      AV","",34.0145,-118.3089
201513681,"08/08/2020 12:00:00 AM","08/08/2020 12:00:00 AM",2015,15,"N Hollywood",1506,2,624,"BATTERY - SIMPLE ASSAULT","0400 0416",36,"M","B",502,"MULTI-UNIT DWELLING (APARTMENT, DUPLEX, ETC)",400,"STRONG-ARM (HANDS, FIST, FEET OR BODILY FORCE)","AO","Adult Other",624,NA,NA,NA,"7200    TUJUNGA                      AV","",34.2012,-118.379
200715824,"11/09/2020 12:00:00 AM","11/06/2020 12:00:00 AM",1120,7,"Wilshire",743,2,354,"THEFT OF IDENTITY","0928",60,"F","C",145,"MAIL BOX",NA,"","IC","Invest Cont",354,NA,NA,NA,"1000    HAUSER                       BL","",34.0592,-118.3575
200108203,"03/01/2020 12:00:00 AM","03/01/2020 12:00:00 AM",1525,1,"Central",161,2,860,"BATTERY WITH SEXUAL CONTACT","0531 0522 2024 1822",43,"F","O",102,"SIDEWALK",400,"STRONG-ARM (HANDS, FIST, FEET OR BODILY FORCE)","IC","Invest Cont",860,NA,NA,NA,"700 S  FIGUEROA                     ST","",34.0483,-118.2631
211810626,"05/18/2021 12:00:00 AM","05/18/2021 12:00:00 AM",950,18,"Southeast",1834,2,901,"VIOLATION OF RESTRAINING ORDER","0913 0561 2038 0432 1202",69,"F","B",501,"SINGLE FAMILY DWELLING",NA,"","IC","Invest Cont",901,NA,NA,NA,"1100 E  105TH                        ST","",33.941,-118.2566
200511276,"07/01/2020 12:00:00 AM","06/18/2020 12:00:00 AM",1430,5,"Harbor",589,1,341,"THEFT-GRAND ($950.01 & OVER)EXCPT,GUNS,FOWL,LIVESTK,PROD","0344 1236",0,"M","O",117,"BEACH",NA,"","IC","Invest Cont",341,NA,NA,NA,"3800    STEPHEN M WHITE              DR","",33.7091,-118.2855
211505857,"02/18/2021 12:00:00 AM","02/02/2021 12:00:00 AM",1345,15,"N Hollywood",1504,1,341,"THEFT-GRAND ($950.01 & OVER)EXCPT,GUNS,FOWL,LIVESTK,PROD","0344",22,"F","H",121,"YARD (RESIDENTIAL/BUSINESS)",NA,"","IC","Invest Cont",341,NA,NA,NA,"11900    RUNNYMEDE                    ST","",34.2057,-118.3921
211115937,"12/01/2021 12:00:00 AM","11/30/2021 12:00:00 AM",2136,11,"Northeast",1158,1,510,"VEHICLE - STOLEN","",0,"","",101,"STREET",NA,"","IC","Invest Cont",510,NA,NA,NA,"200    MT WASHINGTON                DR","",34.0951,-118.2171
210917220,"12/04/2021 12:00:00 AM","12/03/2021 12:00:00 AM",2220,9,"Van Nuys",901,2,624,"BATTERY - SIMPLE ASSAULT","0446 0562 0416",48,"F","H",501,"SINGLE FAMILY DWELLING",400,"STRONG-ARM (HANDS, FIST, FEET OR BODILY FORCE)","AO","Adult Other",624,NA,NA,NA,"15400    KESWICK                      ST","",34.2102,-118.4684
210108430,"04/05/2021 12:00:00 AM","04/04/2021 12:00:00 AM",1,1,"Central",174,1,330,"BURGLARY FROM VEHICLE","1300 1822 1607 0329 0344",22,"M","W",102,"SIDEWALK",NA,"","IC","Invest Cont",330,NA,NA,NA,"100 E  8TH                          ST","",34.0423,-118.2527
200119510,"10/15/2020 12:00:00 AM","09/26/2020 12:00:00 AM",1200,1,"Central",166,2,354,"THEFT OF IDENTITY","0377",63,"M","O",502,"MULTI-UNIT DWELLING (APARTMENT, DUPLEX, ETC)",NA,"","IC","Invest Cont",354,NA,NA,NA,"600    WALL                         ST","",34.042,-118.2485
201207698,"02/13/2020 12:00:00 AM","01/13/2020 12:00:00 AM",1020,12,"77th Street",1248,1,440,"THEFT PLAIN - PETTY ($950 & UNDER)","0344 0913",38,"M","H",104,"DRIVEWAY",NA,"","AO","Adult Other",440,NA,NA,NA,"6600    MENLO                        AV","",33.9792,-118.2892
221317172,"09/05/2022 12:00:00 AM","09/05/2022 12:00:00 AM",1800,13,"Newton",1303,1,341,"THEFT-GRAND ($950.01 & OVER)EXCPT,GUNS,FOWL,LIVESTK,PROD","1202 0344",61,"F","A",405,"CLOTHING STORE",NA,"","IC","Invest Cont",341,NA,NA,NA,"1200    MAPLE                        AV","",34.0357,-118.2563
200816863,"11/24/2020 12:00:00 AM","11/24/2020 12:00:00 AM",1600,8,"West LA",899,2,624,"BATTERY - SIMPLE ASSAULT","0400 0416 1822",20,"M","H",102,"SIDEWALK",400,"STRONG-ARM (HANDS, FIST, FEET OR BODILY FORCE)","IC","Invest Cont",624,NA,NA,NA,"VERA                         AV","VENICE                       BL",34.0325,-118.3874
210914873,"10/03/2021 12:00:00 AM","10/03/2021 12:00:00 AM",323,9,"Van Nuys",948,1,310,"BURGLARY","1420 1822 0344 1601 0209 0206",0,"X","X",203,"OTHER BUSINESS",NA,"","IC","Invest Cont",310,NA,NA,NA,"5600    WOODMAN                      AV","",34.1721,-118.4313
220712254,"07/29/2022 12:00:00 AM","07/05/2022 12:00:00 AM",130,7,"Wilshire",706,1,310,"BURGLARY","1605 1822 0314 0344",77,"F","W",501,"SINGLE FAMILY DWELLING",NA,"","IC","Invest Cont",310,NA,NA,NA,"800 N  SYCAMORE                     AV","",34.0853,-118.3428
200617861,"10/11/2020 12:00:00 AM","10/09/2020 12:00:00 AM",710,6,"Hollywood",649,2,740,"VANDALISM - FELONY ($400 & OVER, ALL CHURCH VANDALISMS)","1822 0329 1607",0,"X","X",502,"MULTI-UNIT DWELLING (APARTMENT, DUPLEX, ETC)",500,"UNKNOWN WEAPON/OTHER WEAPON","IC","Invest Cont",740,888,NA,NA,"1500 N  HOBART                       BL","",34.0981,-118.3056
200113916,"06/25/2020 12:00:00 AM","06/25/2020 12:00:00 AM",1210,1,"Central",166,1,230,"ASSAULT WITH DEADLY WEAPON, AGGRAVATED ASSAULT","2004 1402 0416 1822 1218 0447 1414 1420 0411",61,"M","B",102,"SIDEWALK",207,"OTHER KNIFE","AO","Adult Other",230,998,NA,NA,"600 S  SAN PEDRO                    ST","",34.0421,-118.2469
221908259,"04/12/2022 12:00:00 AM","04/10/2022 12:00:00 AM",1520,19,"Mission",1958,1,330,"BURGLARY FROM VEHICLE","1601 0344 1822",25,"F","H",101,"STREET",NA,"","IC","Invest Cont",330,NA,NA,NA,"CANTERBURY","VAN NUYS",34.2492,-118.4453
211407768,"03/04/2021 12:00:00 AM","03/04/2021 12:00:00 AM",200,14,"Pacific",1414,1,480,"BIKE - STOLEN","0344",67,"F","W",119,"PORCH, RESIDENTIAL",NA,"","IC","Invest Cont",480,NA,NA,NA,"600    FLOWER                       AV","",33.9984,-118.4713
211106675,"03/19/2021 12:00:00 AM","03/19/2021 12:00:00 AM",900,11,"Northeast",1142,2,354,"THEFT OF IDENTITY","1822 1402",0,"X","X",602,"BANK",NA,"","IC","Invest Cont",354,998,NA,NA,"4500    FRANKLIN                     AV","",34.1054,-118.2878
210507343,"03/27/2021 12:00:00 AM","03/26/2021 12:00:00 AM",2200,5,"Harbor",506,2,626,"INTIMATE PARTNER - SIMPLE ASSAULT","0913 2000 0416 1813",38,"F","B",502,"MULTI-UNIT DWELLING (APARTMENT, DUPLEX, ETC)",400,"STRONG-ARM (HANDS, FIST, FEET OR BODILY FORCE)","AA","Adult Arrest",626,NA,NA,NA,"1400 W  CARSON                       ST","",33.8315,-118.3021
200308517,"03/13/2020 12:00:00 AM","02/28/2020 12:00:00 AM",1403,3,"Southwest",362,1,440,"THEFT PLAIN - PETTY ($950 & UNDER)","0344 0394",25,"M","H",502,"MULTI-UNIT DWELLING (APARTMENT, DUPLEX, ETC)",NA,"","IC","Invest Cont",440,NA,NA,NA,"4800    MARTIN LUTHER KING           BL","",34.0198,-118.3492
210209557,"05/18/2021 12:00:00 AM","05/18/2021 12:00:00 AM",30,2,"Rampart",246,1,220,"ATTEMPTED ROBBERY","2004 1822 1402 0416 0445 0355",43,"M","O",102,"SIDEWALK",302,"BLUNT INSTRUMENT","AO","Adult Other",220,998,NA,NA,"WILSHIRE","ALVARADO",34.0579,-118.2759
211114829,"10/31/2021 12:00:00 AM","10/31/2021 12:00:00 AM",325,11,"Northeast",1177,2,753,"DISCHARGE FIREARMS/SHOTS FIRED","1100 1501 1402 1419 1407 1822",0,"X","X",101,"STREET",102,"HAND GUN","IC","Invest Cont",753,998,NA,NA,"2600    ROSEVIEW                     AV","",34.0927,-118.2292
211014157,"10/08/2021 12:00:00 AM","09/01/2020 12:00:00 AM",1710,10,"West Valley",1078,2,354,"THEFT OF IDENTITY","1822 0935 1202 0928",60,"F","O",501,"SINGLE FAMILY DWELLING",NA,"","IC","Invest Cont",354,NA,NA,NA,"4900    BALBOA                       BL","",34.1593,-118.5011
210511438,"07/13/2021 12:00:00 AM","07/12/2021 12:00:00 AM",1300,5,"Harbor",504,1,331,"THEFT FROM MOTOR VEHICLE - GRAND ($950.01 AND OVER)","0344 0385 1300",22,"F","B",503,"HOTEL",NA,"","IC","Invest Cont",331,NA,NA,NA,"19200    HARBORGATE                   WY","",33.855,-118.3035
212016350,"10/30/2021 12:00:00 AM","10/30/2021 12:00:00 AM",2330,20,"Olympic",2022,2,626,"INTIMATE PARTNER - SIMPLE ASSAULT","0416 0417 0429 0432 0913 1813 2000",44,"F","B",502,"MULTI-UNIT DWELLING (APARTMENT, DUPLEX, ETC)",400,"STRONG-ARM (HANDS, FIST, FEET OR BODILY FORCE)","AO","Adult Other",626,NA,NA,NA,"400 S  GRAMERCY                     PL","",34.0671,-118.3128
221511427,"06/23/2022 12:00:00 AM","06/23/2022 12:00:00 AM",215,15,"N Hollywood",1555,2,740,"VANDALISM - FELONY ($400 & OVER, ALL CHURCH VANDALISMS)","1822 0444 0329 1300",53,"M","O",101,"STREET",NA,"","IC","Invest Cont",740,NA,NA,NA,"TUJUNGA","MAGNOLIA",34.165,-118.379
210406615,"03/13/2021 12:00:00 AM","03/13/2021 12:00:00 AM",1430,4,"Hollenbeck",424,2,624,"BATTERY - SIMPLE ASSAULT","0446 0444 0603 1822",56,"F","H",101,"STREET",400,"STRONG-ARM (HANDS, FIST, FEET OR BODILY FORCE)","IC","Invest Cont",624,NA,NA,NA,"2200    PARKSIDE                     AV","",34.0705,-118.2001
200117482,"09/05/2020 12:00:00 AM","09/05/2020 12:00:00 AM",1015,1,"Central",156,1,230,"ASSAULT WITH DEADLY WEAPON, AGGRAVATED ASSAULT","1822 0416 0401 1218 2004 2001 1414",59,"M","B",109,"PARK/PLAYGROUND",516,"DOG/ANIMAL (SIC ANIMAL ON)","IC","Invest Cont",230,NA,NA,NA,"5TH                          ST","SAN JULIAN",34.0446,-118.245
200918014,"12/03/2020 12:00:00 AM","12/02/2020 12:00:00 AM",1320,9,"Van Nuys",981,2,740,"VANDALISM - FELONY ($400 & OVER, ALL CHURCH VANDALISMS)","0329",56,"M","W",101,"STREET",NA,"","AA","Adult Arrest",740,NA,NA,NA,"4500    SAUGUS                       AV","",34.1512,-118.4662
200511244,"06/30/2020 12:00:00 AM","06/30/2020 12:00:00 AM",710,5,"Harbor",564,1,330,"BURGLARY FROM VEHICLE","0358 1302 1300 1605",0,"X","X",108,"PARKING LOT",NA,"","IC","Invest Cont",330,NA,NA,NA,"600 S  PALOS VERDES                 ST","",33.7379,-118.2814
200614196,"08/20/2020 12:00:00 AM","08/17/2020 12:00:00 AM",1800,6,"Hollywood",639,1,420,"THEFT FROM MOTOR VEHICLE - PETTY ($950 & UNDER)","",0,"","",101,"STREET",NA,"","IC","Invest Cont",420,NA,NA,NA,"LOMA LINDA                   AV","SERRANO                      AV",34.103,-118.3072
210807700,"04/03/2021 12:00:00 AM","03/29/2021 12:00:00 AM",900,8,"West LA",851,1,480,"BIKE - STOLEN","0344",31,"M","J",707,"GARAGE/CARPORT",NA,"","IC","Invest Cont",480,NA,NA,NA,"11900    IDAHO                        AV","",34.039,-118.461
200320254,"11/12/2020 12:00:00 AM","11/11/2020 12:00:00 AM",2230,3,"Southwest",326,1,510,"VEHICLE - STOLEN","",0,"","",101,"STREET",NA,"","IC","Invest Cont",510,NA,NA,NA,"2600    DALTON                       AV","",34.0322,-118.3041
202105424,"02/01/2020 12:00:00 AM","01/27/2020 12:00:00 AM",1700,21,"Topanga",2104,1,310,"BURGLARY","1606 0344",57,"M","W",502,"MULTI-UNIT DWELLING (APARTMENT, DUPLEX, ETC)",NA,"","IC","Invest Cont",310,NA,NA,NA,"8900    OWENSMOUTH                   AV","",34.2315,-118.6016
210620548,"12/17/2021 12:00:00 AM","12/17/2021 12:00:00 AM",1750,6,"Hollywood",646,2,888,"TRESPASSING","1822",26,"F","A",502,"MULTI-UNIT DWELLING (APARTMENT, DUPLEX, ETC)",NA,"","IC","Invest Cont",888,NA,NA,NA,"6600 W  SUNSET                       BL","",34.098,-118.3335
202014020,"08/29/2020 12:00:00 AM","08/29/2020 12:00:00 AM",2015,20,"Olympic",2027,1,230,"ASSAULT WITH DEADLY WEAPON, AGGRAVATED ASSAULT","1309 0334 0302 0371 0432 1822",36,"X","X",108,"PARKING LOT",102,"HAND GUN","AA","Adult Arrest",230,NA,NA,NA,"6TH                          ST","VERMONT                      AV",34.0636,-118.2916
210411978,"08/20/2021 12:00:00 AM","08/20/2021 12:00:00 AM",30,4,"Hollenbeck",427,2,626,"INTIMATE PARTNER - SIMPLE ASSAULT","0913 1814 2000 1402 0400 0419 0416",30,"F","H",501,"SINGLE FAMILY DWELLING",400,"STRONG-ARM (HANDS, FIST, FEET OR BODILY FORCE)","AO","Adult Other",626,998,NA,NA,"4700    TWINING                      ST","",34.0839,-118.1819
222014870,"09/11/2022 12:00:00 AM","09/10/2022 12:00:00 AM",2300,20,"Olympic",2025,1,510,"VEHICLE - STOLEN","",0,"","",108,"PARKING LOT",NA,"","AA","Adult Arrest",510,NA,NA,NA,"300 S  ALEXANDRIA                   AV","",34.069,-118.2979
221915362,"10/05/2022 12:00:00 AM","10/04/2022 12:00:00 AM",1800,19,"Mission",1921,2,812,"CRM AGNST CHLD (13 OR UNDER) (14-15 & SUSP 10 YRS OLDER)","0448 0503 0913 1817 0552 1258",11,"F","H",101,"STREET",400,"STRONG-ARM (HANDS, FIST, FEET OR BODILY FORCE)","IC","Invest Cont",812,860,NA,NA,"SAN FERNANDO                 RD","BLEDSOE",34.3045,-118.4662
200817772,"12/21/2020 12:00:00 AM","12/21/2020 12:00:00 AM",530,8,"West LA",884,1,331,"THEFT FROM MOTOR VEHICLE - GRAND ($950.01 AND OVER)","1309 0216 1420 0385 0344 1822 1402",24,"F","H",252,"COFFEE SHOP (STARBUCKS, COFFEE BEAN, PEET'S, ETC.)",NA,"","IC","Invest Cont",331,998,NA,NA,"10900 W  PICO                         BL","",34.0396,-118.4296
211806290,"02/11/2021 12:00:00 AM","02/11/2021 12:00:00 AM",2300,18,"Southeast",1821,2,745,"VANDALISM - MISDEAMEANOR ($399 OR UNDER)","1822 0329",0,"X","X",401,"MINI-MART",NA,"","IC","Invest Cont",745,NA,NA,NA,"10000 S  VERMONT                      AV","",33.9446,-118.2916
211423009,"11/22/2021 12:00:00 AM","11/22/2021 12:00:00 AM",800,14,"Pacific",1499,2,740,"VANDALISM - FELONY ($400 & OVER, ALL CHURCH VANDALISMS)","1822 0329 1300",60,"M","B",212,"TRANSPORTATION FACILITY (AIRPORT)",NA,"","IC","Invest Cont",740,NA,NA,NA,"11500    AVIATION                     BL","",33.9298,-118.3784
221317860,"09/18/2022 12:00:00 AM","05/20/2022 12:00:00 AM",1535,13,"Newton",1343,2,354,"THEFT OF IDENTITY","0930",17,"F","H",145,"MAIL BOX",NA,"","IC","Invest Cont",354,NA,NA,NA,"400 E  41ST                         ST","",34.0114,-118.2624
220413065,"09/09/2022 12:00:00 AM","09/04/2022 12:00:00 AM",2200,4,"Hollenbeck",488,2,740,"VANDALISM - FELONY ($400 & OVER, ALL CHURCH VANDALISMS)","0329",54,"M","H",101,"STREET",NA,"","IC","Invest Cont",740,NA,NA,NA,"1100 S  GRANDE VISTA                 AV","",34.0255,-118.2071
210412643,"09/08/2021 12:00:00 AM","09/05/2021 12:00:00 AM",1952,4,"Hollenbeck",464,1,648,"ARSON","",0,"X","X",708,"CHURCH/CHAPEL (CHANGED 03-03 FROM CHURCH/TEMPLE)",NA,"","IC","Invest Cont",648,NA,NA,NA,"200 S  ST LOUIS                     ST","",34.0445,-118.2116
211212192,"05/14/2021 12:00:00 AM","05/13/2021 12:00:00 AM",1500,12,"77th Street",1243,1,236,"INTIMATE PARTNER - AGGRAVATED ASSAULT","2000 0448 0334 0421 0408 0913",47,"F","B",102,"SIDEWALK",400,"STRONG-ARM (HANDS, FIST, FEET OR BODILY FORCE)","IC","Invest Cont",236,NA,NA,NA,"6200 S  WESTERN                      AV","",33.979,-118.3112
221105531,"02/11/2022 12:00:00 AM","02/11/2022 12:00:00 AM",1130,11,"Northeast",1133,1,230,"ASSAULT WITH DEADLY WEAPON, AGGRAVATED ASSAULT","1822 0400",0,"M","W",502,"MULTI-UNIT DWELLING (APARTMENT, DUPLEX, ETC)",400,"STRONG-ARM (HANDS, FIST, FEET OR BODILY FORCE)","AO","Adult Other",230,NA,NA,NA,"3400    GREENSWARD                   RD","",34.1129,-118.2616
220204930,"01/22/2022 12:00:00 AM","01/22/2022 12:00:00 AM",2010,2,"Rampart",233,2,624,"BATTERY - SIMPLE ASSAULT","0602 0561 0913 0400",53,"M","H",501,"SINGLE FAMILY DWELLING",400,"STRONG-ARM (HANDS, FIST, FEET OR BODILY FORCE)","AO","Adult Other",624,NA,NA,NA,"2700    HYANS                        ST","",34.0721,-118.2763
220704825,"01/24/2022 12:00:00 AM","01/20/2022 12:00:00 AM",1500,7,"Wilshire",773,1,420,"THEFT FROM MOTOR VEHICLE - PETTY ($950 & UNDER)","0344",59,"M","B",104,"DRIVEWAY",NA,"","IC","Invest Cont",420,NA,NA,NA,"1700 S  RIDGELEY                     DR","",34.0433,-118.3578
201316675,"09/08/2020 12:00:00 AM","09/04/2020 12:00:00 AM",2100,13,"Newton",1395,1,310,"BURGLARY","0358 0329 1607 0321",0,"X","X",704,"ELEMENTARY SCHOOL",NA,"","IC","Invest Cont",310,NA,NA,NA,"6600 S  SAN PEDRO                    ST","",33.9788,-118.2696
210620119,"12/08/2021 12:00:00 AM","12/07/2021 12:00:00 AM",1700,6,"Hollywood",678,2,740,"VANDALISM - FELONY ($400 & OVER, ALL CHURCH VANDALISMS)","0329 0311 1822 1501",0,"X","X",109,"PARK/PLAYGROUND",NA,"","IC","Invest Cont",740,NA,NA,NA,"4900 W  LEMON GROVE                  AV","",34.0862,-118.304
201106382,"02/22/2020 12:00:00 AM","02/02/2020 12:00:00 AM",1805,11,"Northeast",1142,2,860,"BATTERY WITH SEXUAL CONTACT","0500 0522 0551",32,"F","W",718,"MASSAGE PARLOR",400,"STRONG-ARM (HANDS, FIST, FEET OR BODILY FORCE)","AA","Adult Arrest",860,NA,NA,NA,"1900    HILLHURST                    AV","",34.1054,-118.2874
220406326,"03/12/2022 12:00:00 AM","03/12/2022 12:00:00 AM",930,4,"Hollenbeck",401,2,900,"VIOLATION OF COURT ORDER","2038 2004",36,"F","H",109,"PARK/PLAYGROUND",NA,"","AO","Adult Other",900,NA,NA,NA,"4500    HOMER                        ST","",34.0898,-118.2075
220806295,"02/25/2022 12:00:00 AM","02/25/2022 12:00:00 AM",1922,8,"West LA",847,1,310,"BURGLARY","1609 0216 0321 1822",49,"M","A",501,"SINGLE FAMILY DWELLING",NA,"","IC","Invest Cont",310,NA,NA,NA,"2200    MANNING                      AV","",34.0471,-118.4264
200913088,"08/04/2020 12:00:00 AM","08/04/2020 12:00:00 AM",600,15,"N Hollywood",1532,1,510,"VEHICLE - STOLEN","0330 1402",31,"M","O",101,"STREET",NA,"","IC","Invest Cont",510,NA,NA,NA,"BELLINGHAM                   AV","OXNARD                       ST",34.1794,-118.3987
202113855,"09/17/2020 12:00:00 AM","09/17/2020 12:00:00 AM",5,21,"Topanga",2107,1,440,"THEFT PLAIN - PETTY ($950 & UNDER)","0344 0910 2034 2048 2004",54,"M","W",883,"MTA - ORANGE LINE - ROSCOE",NA,"","IC","Invest Cont",440,NA,NA,NA,"8300    CANOGA                       AV","",34.2198,-118.5975
201419604,"11/02/2020 12:00:00 AM","11/01/2020 12:00:00 AM",2153,14,"Pacific",1446,1,510,"VEHICLE - STOLEN","",0,"","",707,"GARAGE/CARPORT",NA,"","IC","Invest Cont",510,NA,NA,NA,"12200    PACIFIC                      AV","",34.0027,-118.4328
210116490,"09/08/2021 12:00:00 AM","08/14/2021 12:00:00 AM",2300,1,"Central",182,1,341,"THEFT-GRAND ($950.01 & OVER)EXCPT,GUNS,FOWL,LIVESTK,PROD","2032 0344 1822",23,"M","W",108,"PARKING LOT",NA,"","IC","Invest Cont",341,480,NA,NA,"1100 S  OLIVE                        ST","",34.04,-118.2617
200914626,"09/12/2020 12:00:00 AM","08/20/2020 12:00:00 AM",1205,9,"Van Nuys",909,2,354,"THEFT OF IDENTITY","0377",21,"F","W",602,"BANK",NA,"","IC","Invest Cont",354,NA,NA,NA,"13900    VALERIO                      ST","",34.2048,-118.4356
221007119,"03/23/2022 12:00:00 AM","03/22/2022 12:00:00 AM",1230,10,"West Valley",1017,1,341,"THEFT-GRAND ($950.01 & OVER)EXCPT,GUNS,FOWL,LIVESTK,PROD","1822 0344",46,"M","H",210,"RESTAURANT/FAST FOOD",NA,"","IC","Invest Cont",341,NA,NA,NA,"LOUISE                       AV","SATICOY                      ST",34.2084,-118.5098
210918049,"12/27/2021 12:00:00 AM","12/24/2021 12:00:00 AM",1300,9,"Van Nuys",932,1,330,"BURGLARY FROM VEHICLE","0344",54,"M","H",108,"PARKING LOT",NA,"","IC","Invest Cont",330,NA,NA,NA,"6100 N  SEPULVEDA                    BL","",34.1807,-118.4662
212009841,"05/31/2021 12:00:00 AM","05/31/2021 12:00:00 AM",1740,20,"Olympic",2019,1,236,"INTIMATE PARTNER - AGGRAVATED ASSAULT","0913 2000 2002 0444 0448 0408 0451 0432",34,"F","W",502,"MULTI-UNIT DWELLING (APARTMENT, DUPLEX, ETC)",400,"STRONG-ARM (HANDS, FIST, FEET OR BODILY FORCE)","AA","Adult Arrest",236,NA,NA,NA,"3300 W  3RD                          ST","",34.0728,-118.2878
211014078,"11/01/2021 12:00:00 AM","10/31/2021 12:00:00 AM",1200,10,"West Valley",1008,2,626,"INTIMATE PARTNER - SIMPLE ASSAULT","0913 0400 1814 2000 0416 1310 0329",24,"M","H",102,"SIDEWALK",400,"STRONG-ARM (HANDS, FIST, FEET OR BODILY FORCE)","AO","Adult Other",626,NA,NA,NA,"7300    RUBIO                        AV","",34.2034,-118.4957
200709098,"05/10/2020 12:00:00 AM","04/30/2020 12:00:00 AM",1535,7,"Wilshire",783,2,956,"LETTERS, LEWD  -  TELEPHONE CALLS, LEWD","1906 0514",23,"M","W",501,"SINGLE FAMILY DWELLING",NA,"","IC","Invest Cont",956,NA,NA,NA,"2100 S  CLOVERDALE                   AV","",34.0395,-118.3546
211604660,"01/24/2021 12:00:00 AM","01/24/2021 12:00:00 AM",120,16,"Foothill",1684,2,624,"BATTERY - SIMPLE ASSAULT","0561 0416 0913 2002",64,"M","H",501,"SINGLE FAMILY DWELLING",400,"STRONG-ARM (HANDS, FIST, FEET OR BODILY FORCE)","AO","Adult Other",624,NA,NA,NA,"11900    RATNER                       ST","",34.2168,-118.3944
201515491,"09/23/2020 12:00:00 AM","09/18/2020 12:00:00 AM",100,15,"N Hollywood",1525,2,627,"CHILD ABUSE (PHYSICAL) - SIMPLE ASSAULT","0416 1259 0553",15,"F","H",122,"VEHICLE, PASSENGER/TRUCK",400,"STRONG-ARM (HANDS, FIST, FEET OR BODILY FORCE)","AO","Adult Other",627,NA,NA,NA,"LAUREL CANYON                BL","VICTORY                      BL",34.1867,-118.3965
210212295,"07/22/2021 12:00:00 AM","07/22/2021 12:00:00 AM",2150,2,"Rampart",279,2,910,"KIDNAPPING","1259 1822 1300 1305 0418 0448 0400",0,"F","H",103,"ALLEY",400,"STRONG-ARM (HANDS, FIST, FEET OR BODILY FORCE)","IC","Invest Cont",910,NA,NA,NA,"OLYMPIC","ALBANY",34.0478,-118.2711
211819659,"11/07/2021 12:00:00 AM","11/05/2021 12:00:00 AM",1,18,"Southeast",1842,1,420,"THEFT FROM MOTOR VEHICLE - PETTY ($950 & UNDER)","",0,"","",108,"PARKING LOT",NA,"","IC","Invest Cont",420,NA,NA,NA,"11200 S  BROADWAY","",33.9325,-118.2784
201007512,"03/25/2020 12:00:00 AM","03/25/2020 12:00:00 AM",112,10,"West Valley",1089,2,888,"TRESPASSING","1822 1420 1236",0,"M","O",210,"RESTAURANT/FAST FOOD",NA,"","IC","Invest Cont",888,NA,NA,NA,"15900    VENTURA                      BL","",34.1558,-118.4793
220805285,"01/31/2022 12:00:00 AM","01/28/2022 12:00:00 AM",1630,8,"West LA",815,1,440,"THEFT PLAIN - PETTY ($950 & UNDER)","1822 0344",46,"M","W",501,"SINGLE FAMILY DWELLING",NA,"","IC","Invest Cont",440,NA,NA,NA,"11000 W  SUNSET                       BL","",34.0758,-118.4555
220606264,"02/19/2022 12:00:00 AM","02/18/2022 12:00:00 AM",1930,6,"Hollywood",643,1,520,"VEHICLE - ATTEMPT STOLEN","1300 0329 1822 1501 1307 1609",0,"X","X",102,"SIDEWALK",NA,"","IC","Invest Cont",520,NA,NA,NA,"DETROIT","SUNSET",34.098,-118.3456
200910699,"06/06/2020 12:00:00 AM","06/05/2020 12:00:00 AM",1730,9,"Van Nuys",914,2,740,"VANDALISM - FELONY ($400 & OVER, ALL CHURCH VANDALISMS)","0329 1300",25,"M","H",101,"STREET",NA,"","IC","Invest Cont",740,NA,NA,NA,"14500    HART                         ST","",34.1976,-118.4487
220711679,"07/15/2022 12:00:00 AM","07/02/2022 12:00:00 AM",100,7,"Wilshire",762,2,354,"THEFT OF IDENTITY","1822 0929",54,"F","O",501,"SINGLE FAMILY DWELLING",NA,"","IC","Invest Cont",354,NA,NA,NA,"1700    STEARNS                      DR","",34.0465,-118.3727
201605664,"02/08/2020 12:00:00 AM","02/07/2020 12:00:00 AM",1600,16,"Foothill",1602,1,440,"THEFT PLAIN - PETTY ($950 & UNDER)","0344 1822",17,"F","H",109,"PARK/PLAYGROUND",NA,"","IC","Invest Cont",440,NA,NA,NA,"12500    FILMORE                      ST","",34.2839,-118.405
200913306,"08/09/2020 12:00:00 AM","08/06/2020 12:00:00 AM",1200,9,"Van Nuys",952,1,510,"VEHICLE - STOLEN","",0,"","",108,"PARKING LOT",NA,"","IC","Invest Cont",510,NA,NA,NA,"5200    VAN NUYS                     BL","",34.1684,-118.4586
211805472,"01/29/2021 12:00:00 AM","12/01/2020 12:00:00 AM",1,18,"Southeast",1823,1,121,"RAPE, FORCIBLE","0359 0913 1812 1262 1259 1251 0522 0537 0527 0516",14,"F","H",501,"SINGLE FAMILY DWELLING",400,"STRONG-ARM (HANDS, FIST, FEET OR BODILY FORCE)","AA","Adult Arrest",121,812,NA,NA,"10100    TOWNE                        AV","",33.9442,-118.2674
210312726,"07/08/2021 12:00:00 AM","07/01/2021 12:00:00 AM",1230,3,"Southwest",374,1,330,"BURGLARY FROM VEHICLE","1822 0344 0385 1300",42,"M","W",501,"SINGLE FAMILY DWELLING",NA,"","AO","Adult Other",330,NA,NA,NA,"3900    SUTRO                        AV","",34.0142,-118.3232
220511635,"07/22/2022 12:00:00 AM","07/16/2022 12:00:00 AM",1525,5,"Harbor",585,2,354,"THEFT OF IDENTITY","1822 0929 0930 1202",60,"M","W",502,"MULTI-UNIT DWELLING (APARTMENT, DUPLEX, ETC)",NA,"","IC","Invest Cont",354,NA,NA,NA,"1100 W  22ND                         ST","",33.7243,-118.3013
220122440,"10/14/2022 12:00:00 AM","10/13/2022 12:00:00 AM",1645,1,"Central",192,1,310,"BURGLARY","0344 0334 1402",22,"F","W",502,"MULTI-UNIT DWELLING (APARTMENT, DUPLEX, ETC)",102,"HAND GUN","IC","Invest Cont",310,998,NA,NA,"1300 S  FIGUEROA                     ST","",34.0406,-118.268
220121868,"09/29/2022 12:00:00 AM","09/29/2022 12:00:00 AM",1948,1,"Central",161,1,343,"SHOPLIFTING-GRAND THEFT ($950.01 & OVER)","0325",0,"X","X",406,"OTHER STORE",NA,"","IC","Invest Cont",343,NA,NA,NA,"700 S  FIGUEROA                     ST","",34.0483,-118.2631
201517416,"11/10/2020 12:00:00 AM","11/10/2020 12:00:00 AM",330,15,"N Hollywood",1599,1,310,"BURGLARY","1267 0344 1309 1420",36,"M","W",501,"SINGLE FAMILY DWELLING",NA,"","IC","Invest Cont",310,NA,NA,NA,"3500    WRIGHTWOOD                   CT","",34.1333,-118.3697
202004316,"01/07/2020 12:00:00 AM","01/07/2020 12:00:00 AM",1840,20,"Olympic",2062,1,210,"ROBBERY","0344 0377 0416 0417 0429 0444",31,"F","H",108,"PARKING LOT",400,"STRONG-ARM (HANDS, FIST, FEET OR BODILY FORCE)","IC","Invest Cont",210,NA,NA,NA,"3400 W  OLYMPIC                      BL","",34.0527,-118.3122
201611644,"08/03/2020 12:00:00 AM","05/12/2020 12:00:00 AM",5,16,"Foothill",1684,1,420,"THEFT FROM MOTOR VEHICLE - PETTY ($950 & UNDER)","",0,"","",101,"STREET",NA,"","IC","Invest Cont",420,NA,NA,NA,"8000    WEBB                         AV","",34.2162,-118.3882
201116157,"11/29/2020 12:00:00 AM","11/28/2020 12:00:00 AM",1600,11,"Northeast",1102,2,930,"CRIMINAL THREATS - NO WEAPON DISPLAYED","1822 0400 0421",45,"F","O",101,"STREET",511,"VERBAL THREAT","IC","Invest Cont",930,NA,NA,NA,"4100    CHEVY CHASE                  DR","",34.1334,-118.2682
222107636,"04/03/2022 12:00:00 AM","04/02/2022 12:00:00 AM",1840,21,"Topanga",2156,1,352,"PICKPOCKET","0344",36,"F","H",711,"ARCADE,GAME ROOM/VIDEO GAMES (EXAMPLE CHUCKIE CHEESE)*",NA,"","IC","Invest Cont",352,NA,NA,NA,"6000    OWENSMOUTH                   AV","",34.1793,-118.6015
210905611,"02/10/2021 12:00:00 AM","02/09/2021 12:00:00 AM",1030,9,"Van Nuys",935,2,625,"OTHER ASSAULT","1501 0356",42,"M","W",101,"STREET",400,"STRONG-ARM (HANDS, FIST, FEET OR BODILY FORCE)","IC","Invest Cont",625,NA,NA,NA,"TYRONE","BESSEMER",34.1809,-118.4443
220217523,"09/27/2022 12:00:00 AM","09/25/2022 12:00:00 AM",2200,2,"Rampart",237,1,420,"THEFT FROM MOTOR VEHICLE - PETTY ($950 & UNDER)","1822 0344",45,"F","H",108,"PARKING LOT",NA,"","IC","Invest Cont",420,NA,NA,NA,"1300 W  2ND                          ST","",34.0609,-118.2586
210111509,"06/07/2021 12:00:00 AM","06/07/2021 12:00:00 AM",1300,1,"Central",152,2,624,"BATTERY - SIMPLE ASSAULT","0417 1822",44,"M","O",203,"OTHER BUSINESS",400,"STRONG-ARM (HANDS, FIST, FEET OR BODILY FORCE)","AO","Adult Other",624,NA,NA,NA,"600 S  HILL                         ST","",34.0491,-118.2558
211210089,"04/11/2021 12:00:00 AM","04/11/2021 12:00:00 AM",1110,12,"77th Street",1218,1,210,"ROBBERY","0416 0446 1822 0429 0417 0344",55,"F","H",102,"SIDEWALK",400,"STRONG-ARM (HANDS, FIST, FEET OR BODILY FORCE)","AO","Adult Other",210,NA,NA,NA,"FIGUEROA","54TH",33.9933,-118.2827
221713491,"09/07/2022 12:00:00 AM","09/03/2022 12:00:00 AM",635,17,"Devonshire",1775,2,354,"THEFT OF IDENTITY","0922 1822",26,"M","B",501,"SINGLE FAMILY DWELLING",NA,"","IC","Invest Cont",354,NA,NA,NA,"17400    NORDHOFF                     ST","",34.2394,-118.5112
211508151,"04/18/2021 12:00:00 AM","04/17/2021 12:00:00 AM",1210,15,"N Hollywood",1524,2,740,"VANDALISM - FELONY ($400 & OVER, ALL CHURCH VANDALISMS)","0329",0,"M","O",203,"OTHER BUSINESS",NA,"","IC","Invest Cont",740,NA,NA,NA,"12100    VICTORY                      BL","",34.1867,-118.3971
211508011,"04/08/2021 12:00:00 AM","04/03/2021 12:00:00 AM",2305,15,"N Hollywood",1589,2,740,"VANDALISM - FELONY ($400 & OVER, ALL CHURCH VANDALISMS)","0329 1300",29,"M","O",101,"STREET",NA,"","IC","Invest Cont",740,NA,NA,NA,"6700    FOREST LAWN                  DR","",34.1444,-118.3394
221410119,"05/02/2022 12:00:00 AM","05/02/2022 12:00:00 AM",1700,14,"Pacific",1414,1,341,"THEFT-GRAND ($950.01 & OVER)EXCPT,GUNS,FOWL,LIVESTK,PROD","0344",31,"F","H",218,"BEAUTY/BARBER SHOP",NA,"","IC","Invest Cont",341,NA,NA,NA,"600    LINCOLN                      BL","",33.9976,-118.467
210414113,"10/21/2021 12:00:00 AM","10/21/2021 12:00:00 AM",600,4,"Hollenbeck",473,1,210,"ROBBERY","0370 0342 0344 0334 1822 1202",62,"M","H",102,"SIDEWALK",207,"OTHER KNIFE","IC","Invest Cont",210,NA,NA,NA,"CHICAGO                      ST","INEZ                         ST",34.0376,-118.2168
211106562,"03/17/2021 12:00:00 AM","03/16/2021 12:00:00 AM",2000,11,"Northeast",1171,1,330,"BURGLARY FROM VEHICLE","1300 1302 0344 0321",37,"M","W",104,"DRIVEWAY",NA,"","IC","Invest Cont",330,NA,NA,NA,"3000    CASTLE                       ST","",34.0934,-118.2674
200409972,"06/19/2020 12:00:00 AM","06/19/2020 12:00:00 AM",1245,4,"Hollenbeck",497,1,440,"THEFT PLAIN - PETTY ($950 & UNDER)","0344",33,"M","H",119,"PORCH, RESIDENTIAL",NA,"","IC","Invest Cont",440,NA,NA,NA,"3000    GLENN                        AV","",34.0228,-118.2133
201108429,"04/16/2020 12:00:00 AM","04/16/2020 12:00:00 AM",1300,11,"Northeast",1153,1,330,"BURGLARY FROM VEHICLE","0344",37,"M","W",101,"STREET",NA,"","IC","Invest Cont",330,NA,NA,NA,"LOS FELIZ","FERN DELL",34.1081,-118.3078
210209274,"05/10/2021 12:00:00 AM","05/06/2021 12:00:00 AM",1200,2,"Rampart",211,1,341,"THEFT-GRAND ($950.01 & OVER)EXCPT,GUNS,FOWL,LIVESTK,PROD","1202 0344 1601 1822",80,"M","B",502,"MULTI-UNIT DWELLING (APARTMENT, DUPLEX, ETC)",NA,"","IC","Invest Cont",341,NA,NA,NA,"500 N  BERENDO                      ST","",34.079,-118.294
210215509,"10/02/2021 12:00:00 AM","10/02/2021 12:00:00 AM",115,2,"Rampart",266,2,745,"VANDALISM - MISDEAMEANOR ($399 OR UNDER)","0329",22,"M","H",101,"STREET",NA,"","IC","Invest Cont",745,NA,NA,NA,"8TH","WITMER",34.0531,-118.2738
220306529,"02/24/2022 12:00:00 AM","02/24/2022 12:00:00 AM",1710,3,"Southwest",358,1,220,"ATTEMPTED ROBBERY","0334 0445 0387 0345 1822 0416 0371 0906 1816",33,"M","H",102,"SIDEWALK",215,"MACHETE","IC","Invest Cont",220,NA,NA,NA,"EXPOSITION                   BL","FIGUEROA                     ST",34.0183,-118.2828
201820187,"11/06/2020 12:00:00 AM","11/06/2020 12:00:00 AM",2030,18,"Southeast",1804,1,761,"BRANDISH WEAPON","0334 0913 0432",38,"F","H",103,"ALLEY",207,"OTHER KNIFE","IC","Invest Cont",761,NA,NA,NA,"8700 S  CENTRAL                      AV","",33.9583,-118.2564
211014418,"11/10/2021 12:00:00 AM","11/04/2021 12:00:00 AM",1200,10,"West Valley",1079,2,354,"THEFT OF IDENTITY","0930 1822",36,"F","B",501,"SINGLE FAMILY DWELLING",NA,"","IC","Invest Cont",354,NA,NA,NA,"4700    ORION                        AV","",34.1557,-118.4697
200605447,"02/01/2020 12:00:00 AM","02/01/2020 12:00:00 AM",5,6,"Hollywood",646,1,510,"VEHICLE - STOLEN","",0,"","",101,"STREET",NA,"","IC","Invest Cont",510,NA,NA,NA,"SELMA","CAHUENGA",34.0998,-118.3295
210517093,"12/13/2021 12:00:00 AM","12/08/2021 12:00:00 AM",1700,5,"Harbor",512,2,624,"BATTERY - SIMPLE ASSAULT","1310 0416 0443",56,"F","W",102,"SIDEWALK",511,"VERBAL THREAT","IC","Invest Cont",624,NA,NA,NA,"263RD                        ST","GOVERNOR                     AV",33.7837,-118.307
211604301,"01/11/2021 12:00:00 AM","01/11/2021 12:00:00 AM",810,16,"Foothill",1656,2,740,"VANDALISM - FELONY ($400 & OVER, ALL CHURCH VANDALISMS)","",39,"M","H",101,"STREET",NA,"","IC","Invest Cont",740,NA,NA,NA,"NEWHOME","FOOTHILL                     BL",34.2598,-118.3224
200607529,"03/08/2020 12:00:00 AM","03/08/2020 12:00:00 AM",40,6,"Hollywood",636,2,888,"TRESPASSING","1501 1822 2004",0,"X","X",207,"BAR/COCKTAIL/NIGHTCLUB",NA,"","IC","Invest Cont",888,NA,NA,NA,"6500 W  HOLLYWOOD                    BL","",34.1034,-118.3325
200113155,"06/09/2020 12:00:00 AM","06/09/2020 12:00:00 AM",2300,1,"Central",111,1,648,"ARSON","1501 1822",0,"X","X",101,"STREET",506,"FIRE","IC","Invest Cont",648,NA,NA,NA,"BUNKER HILL","ALPINE                       ST",34.0637,-118.244
200211997,"06/30/2020 12:00:00 AM","06/24/2020 12:00:00 AM",1000,2,"Rampart",205,1,510,"VEHICLE - STOLEN","",0,"","",101,"STREET",NA,"","IC","Invest Cont",510,NA,NA,NA,"800    ROBINSON                     ST","",34.0819,-118.2781
201217870,"08/05/2020 12:00:00 AM","07/23/2020 12:00:00 AM",1200,12,"77th Street",1243,1,821,"SODOMY/SEXUAL CONTACT B/W PENIS OF ONE PERS TO ANUS OTH","1257 0558 0913 0500 0519 0522 0507 1402 1415",5,"M","B",501,"SINGLE FAMILY DWELLING",400,"STRONG-ARM (HANDS, FIST, FEET OR BODILY FORCE)","IC","Invest Cont",812,821,NA,NA,"6500 S  ST ANDREWS                   PL","",33.979,-118.3112
201406553,"02/12/2020 12:00:00 AM","02/09/2020 12:00:00 AM",1808,14,"Pacific",1438,1,331,"THEFT FROM MOTOR VEHICLE - GRAND ($950.01 AND OVER)","2004 1300 0344 1608 1606",35,"M","W",123,"PARKING UNDERGROUND/BUILDING",NA,"","IC","Invest Cont",331,NA,NA,NA,"10900    PALMS                        BL","",34.0221,-118.4166
200307178,"02/22/2020 12:00:00 AM","02/22/2020 12:00:00 AM",230,3,"Southwest",379,2,624,"BATTERY - SIMPLE ASSAULT","0913 0432 0446 0416 0319 0421 1310 1240 2021",57,"F","B",103,"ALLEY",400,"STRONG-ARM (HANDS, FIST, FEET OR BODILY FORCE)","IC","Invest Cont",624,NA,NA,NA,"VERMONT                      AV","EXPOSITION                   BL",34.0182,-118.2915
201224886,"11/14/2020 12:00:00 AM","11/14/2020 12:00:00 AM",1120,12,"77th Street",1273,2,624,"BATTERY - SIMPLE ASSAULT","0448 0416 0429 1822 1309",56,"F","B",222,"LAUNDROMAT",400,"STRONG-ARM (HANDS, FIST, FEET OR BODILY FORCE)","AO","Adult Other",624,NA,NA,NA,"9100 S  WESTERN                      AV","",33.9539,-118.309
212018284,"12/14/2021 12:00:00 AM","12/07/2021 12:00:00 AM",1530,20,"Olympic",2055,2,745,"VANDALISM - MISDEAMEANOR ($399 OR UNDER)","0329 1300 1822",29,"F","H",101,"STREET",NA,"","IC","Invest Cont",745,NA,NA,NA,"1200    DEWEY                        AV","",34.0509,-118.2979
211319745,"11/30/2021 12:00:00 AM","11/26/2021 12:00:00 AM",700,13,"Newton",1324,1,331,"THEFT FROM MOTOR VEHICLE - GRAND ($950.01 AND OVER)","0385 0344",29,"F","H",101,"STREET",NA,"","IC","Invest Cont",331,NA,NA,NA,"1300 E  23RD                         ST","",34.0206,-118.2533
210814515,"09/26/2021 12:00:00 AM","09/26/2021 12:00:00 AM",1021,8,"West LA",852,1,343,"SHOPLIFTING-GRAND THEFT ($950.01 & OVER)","2028 0325 0344",0,"X","X",203,"OTHER BUSINESS",NA,"","AO","Adult Other",343,NA,NA,NA,"11800    SANTA MONICA                 BL","",34.0427,-118.4585
200705816,"02/07/2020 12:00:00 AM","02/07/2020 12:00:00 AM",130,7,"Wilshire",767,1,310,"BURGLARY","1607 1601 0344",68,"F","B",203,"OTHER BUSINESS",NA,"","IC","Invest Cont",310,NA,NA,NA,"4100 W  PICO                         BL","",34.0476,-118.3245
211516426,"10/22/2021 12:00:00 AM","10/22/2021 12:00:00 AM",400,15,"N Hollywood",1599,1,510,"VEHICLE - STOLEN","",0,"","",101,"STREET",NA,"","IC","Invest Cont",510,NA,NA,NA,"7100    PACIFIC VIEW                 DR","",34.1208,-118.3473
211217883,"08/03/2021 12:00:00 AM","07/10/2020 12:00:00 AM",800,12,"77th Street",1269,2,354,"THEFT OF IDENTITY","0100 0929",26,"F","B",502,"MULTI-UNIT DWELLING (APARTMENT, DUPLEX, ETC)",NA,"","IC","Invest Cont",354,NA,NA,NA,"8100    AVALON                       BL","",33.965,-118.2651
211107524,"04/13/2021 12:00:00 AM","04/12/2021 12:00:00 AM",1500,11,"Northeast",1171,1,510,"VEHICLE - STOLEN","",0,"","",101,"STREET",NA,"","IC","Invest Cont",510,NA,NA,NA,"1200    HYPERION                     AV","",34.0938,-118.2784
210504849,"01/20/2021 12:00:00 AM","01/11/2021 12:00:00 AM",950,5,"Harbor",505,1,440,"THEFT PLAIN - PETTY ($950 & UNDER)","0394 0344 1236",0,"X","X",702,"OFFICE BUILDING/OFFICE",NA,"","IC","Invest Cont",440,NA,NA,NA,"19600    MAGELLAN                     DR","",33.8509,-118.2929
210310732,"05/25/2021 12:00:00 AM","05/25/2021 12:00:00 AM",5,3,"Southwest",379,2,624,"BATTERY - SIMPLE ASSAULT","0913 0552 0448 0400",19,"F","H",502,"MULTI-UNIT DWELLING (APARTMENT, DUPLEX, ETC)",500,"UNKNOWN WEAPON/OTHER WEAPON","AO","Adult Other",624,NA,NA,NA,"1100 W  MARTIN LUTHER KING JR        BL","",34.0145,-118.2937
211307568,"03/20/2021 12:00:00 AM","03/20/2021 12:00:00 AM",1610,13,"Newton",1352,2,624,"BATTERY - SIMPLE ASSAULT","0446 0913 0603",29,"M","W",501,"SINGLE FAMILY DWELLING",400,"STRONG-ARM (HANDS, FIST, FEET OR BODILY FORCE)","IC","Invest Cont",624,NA,NA,NA,"4400    CROCKER                      ST","",34.0034,-118.2687
210511115,"07/06/2021 12:00:00 AM","07/06/2021 12:00:00 AM",1010,5,"Harbor",522,1,210,"ROBBERY","0344 0334 0444 0429 0337 0202 1822 0209",0,"X","X",406,"OTHER STORE",102,"HAND GUN","IC","Invest Cont",210,NA,NA,NA,"900 W  ANAHEIM                      ST","",33.7794,-118.2733
200716753,"12/05/2020 12:00:00 AM","12/05/2020 12:00:00 AM",1910,7,"Wilshire",721,1,210,"ROBBERY","0355 0302 0344 1402 1419 1000",34,"F","O",102,"SIDEWALK",102,"HAND GUN","AA","Adult Arrest",210,998,NA,NA,"8800    BURTON                       WY","",34.0721,-118.3841
210507606,"04/04/2021 12:00:00 AM","04/04/2021 12:00:00 AM",1620,5,"Harbor",564,2,624,"BATTERY - SIMPLE ASSAULT","0416 0429 0446 1822",17,"M","H",103,"ALLEY",400,"STRONG-ARM (HANDS, FIST, FEET OR BODILY FORCE)","IC","Invest Cont",624,NA,NA,NA,"400 W  2ND                          ST","",33.7424,-118.2861
200505998,"02/16/2020 12:00:00 AM","02/16/2020 12:00:00 AM",2015,5,"Harbor",563,2,626,"INTIMATE PARTNER - SIMPLE ASSAULT","0913 2000 1813 0448",38,"F","H",502,"MULTI-UNIT DWELLING (APARTMENT, DUPLEX, ETC)",400,"STRONG-ARM (HANDS, FIST, FEET OR BODILY FORCE)","IC","Invest Cont",626,NA,NA,NA,"600 W  17TH                         ST","",33.7288,-118.2902
211814721,"08/04/2021 12:00:00 AM","08/04/2021 12:00:00 AM",1810,18,"Southeast",1824,1,510,"VEHICLE - STOLEN","",0,"","",108,"PARKING LOT",NA,"","IC","Invest Cont",510,NA,NA,NA,"103RD                        ST","AVALON                       BL",33.9438,-118.265
222013112,"05/30/2022 12:00:00 AM","05/28/2022 12:00:00 AM",100,20,"Olympic",2042,1,331,"THEFT FROM MOTOR VEHICLE - GRAND ($950.01 AND OVER)","0344 0321",51,"M","W",101,"STREET",NA,"","IC","Invest Cont",331,NA,NA,NA,"900 S  MANHATTAN                    PL","",34.0559,-118.3101
201214340,"06/09/2020 12:00:00 AM","06/09/2020 12:00:00 AM",230,12,"77th Street",1268,1,341,"THEFT-GRAND ($950.01 & OVER)EXCPT,GUNS,FOWL,LIVESTK,PROD","0344 0448 0305 0346",20,"F","W",101,"STREET",400,"STRONG-ARM (HANDS, FIST, FEET OR BODILY FORCE)","IC","Invest Cont",341,NA,NA,NA,"100 W  MANCHESTER                   AV","",33.964,-118.2739
201009283,"05/23/2020 12:00:00 AM","05/23/2020 12:00:00 AM",1700,10,"West Valley",1041,1,510,"VEHICLE - STOLEN","",0,"","",101,"STREET",NA,"","IC","Invest Cont",510,NA,NA,NA,"19300    CALIFA                       ST","",34.1776,-118.5535
221006900,"03/17/2022 12:00:00 AM","03/17/2022 12:00:00 AM",845,10,"West Valley",1025,2,888,"TRESPASSING","1822 2004",0,"M","W",203,"OTHER BUSINESS",NA,"","AO","Adult Other",888,NA,NA,NA,"18400    SHERMAN                      WY","",34.2011,-118.5335
200407261,"03/25/2020 12:00:00 AM","03/24/2020 12:00:00 AM",2300,4,"Hollenbeck",427,1,510,"VEHICLE - STOLEN","",0,"","",101,"STREET",NA,"","IC","Invest Cont",510,NA,NA,NA,"4700    HUNTINGTON DR","",34.0854,-118.1829
212110648,"06/27/2021 12:00:00 AM","06/27/2021 12:00:00 AM",1753,21,"Topanga",2161,2,956,"LETTERS, LEWD  -  TELEPHONE CALLS, LEWD","1906",58,"M","W",501,"SINGLE FAMILY DWELLING",NA,"","AO","Adult Other",956,NA,NA,NA,"6100    ROD                          AV","",34.1815,-118.6626
200509255,"05/09/2020 12:00:00 AM","05/09/2020 12:00:00 AM",1330,5,"Harbor",563,1,420,"THEFT FROM MOTOR VEHICLE - PETTY ($950 & UNDER)","0344 1300 1606",30,"M","W",103,"ALLEY",NA,"","IC","Invest Cont",420,NA,NA,NA,"600 W  17TH                         ST","",33.7288,-118.2902
201704170,"01/03/2020 12:00:00 AM","01/03/2020 12:00:00 AM",1426,17,"Devonshire",1764,1,343,"SHOPLIFTING-GRAND THEFT ($950.01 & OVER)","0325 1402 0344 0104",0,"X","X",412,"ELECTRONICS STORE (IE:RADIO SHACK, ETC.)",NA,"","IC","Invest Cont",343,998,NA,NA,"9300    TAMPA                        AV","",34.244,-118.5583
200911660,"06/27/2020 12:00:00 AM","06/26/2020 12:00:00 AM",100,9,"Van Nuys",963,1,440,"THEFT PLAIN - PETTY ($950 & UNDER)","0344 0349",49,"F","H",501,"SINGLE FAMILY DWELLING",NA,"","IC","Invest Cont",440,NA,NA,NA,"14700    MORRISON                     ST","",34.1603,-118.4531
211010197,"07/15/2021 12:00:00 AM","07/14/2021 12:00:00 AM",1700,10,"West Valley",1077,1,330,"BURGLARY FROM VEHICLE","1822 0344",50,"M","W",602,"BANK",NA,"","IC","Invest Cont",330,NA,NA,NA,"17200    VENTURA                      BL","",34.1606,-118.508
200605351,"01/29/2020 12:00:00 AM","01/28/2020 12:00:00 AM",825,6,"Hollywood",668,2,813,"CHILD ANNOYING (17YRS & UNDER)","1259",17,"F","H",102,"SIDEWALK",NA,"","IC","Invest Cont",813,NA,NA,NA,"WILTON","LEXINGTON",34.0928,-118.3136
201211623,"04/26/2020 12:00:00 AM","04/25/2020 12:00:00 AM",1600,12,"77th Street",1253,2,740,"VANDALISM - FELONY ($400 & OVER, ALL CHURCH VANDALISMS)","0329",0,"X","X",203,"OTHER BUSINESS",NA,"","IC","Invest Cont",740,NA,NA,NA,"2000 W  FLORENCE                     AV","",33.9746,-118.3134
200414871,"11/14/2020 12:00:00 AM","11/04/2020 12:00:00 AM",1200,4,"Hollenbeck",418,1,310,"BURGLARY","0344",22,"M","O",501,"SINGLE FAMILY DWELLING",NA,"","IC","Invest Cont",310,NA,NA,NA,"4400    PORTOLA                      AV","",34.097,-118.1705
201712690,"08/28/2020 12:00:00 AM","08/28/2020 12:00:00 AM",1330,17,"Devonshire",1729,1,442,"SHOPLIFTING - PETTY THEFT ($950 & UNDER)","0325",0,"X","X",710,"OTHER PREMISE",NA,"","IC","Invest Cont",442,NA,NA,NA,"11100    BALBOA                       BL","",34.2757,-118.5144
211213820,"06/13/2021 12:00:00 AM","06/12/2021 12:00:00 AM",2100,12,"77th Street",1211,1,510,"VEHICLE - STOLEN","",0,"","",101,"STREET",NA,"","IC","Invest Cont",510,NA,NA,NA,"5400    11TH                         AV","",33.9909,-118.3294
201709860,"06/08/2020 12:00:00 AM","06/08/2020 12:00:00 AM",1555,17,"Devonshire",1791,2,888,"TRESPASSING","1501 0329",0,"X","X",752,"FIRE STATION",NA,"","AO","Adult Other",888,NA,NA,NA,"8300    WINNETKA                     AV","",34.2244,-118.5804
201518927,"12/22/2020 12:00:00 AM","12/18/2020 12:00:00 AM",1300,15,"N Hollywood",1563,1,330,"BURGLARY FROM VEHICLE","0344 1300",29,"F","W",504,"OTHER RESIDENCE",NA,"","IC","Invest Cont",330,NA,NA,NA,"4300    TROOST                       AV","",34.1479,-118.3867
210710851,"07/14/2021 12:00:00 AM","07/13/2021 12:00:00 AM",1200,7,"Wilshire",758,2,662,"BUNCO, GRAND THEFT","0701 1822 0800",70,"F","B",501,"SINGLE FAMILY DWELLING",NA,"","IC","Invest Cont",662,NA,NA,NA,"1100 S  RIMPAU                       BL","",34.0543,-118.3348
221112889,"08/19/2022 12:00:00 AM","08/19/2022 12:00:00 AM",2220,11,"Northeast",1107,2,901,"VIOLATION OF RESTRAINING ORDER","2038 2000 0913 1813 1906",39,"F","H",502,"MULTI-UNIT DWELLING (APARTMENT, DUPLEX, ETC)",NA,"","IC","Invest Cont",901,NA,NA,NA,"6600 N  FIGUEROA                     ST","",34.1278,-118.1929
210316820,"10/03/2021 12:00:00 AM","10/02/2021 12:00:00 AM",2000,3,"Southwest",357,2,740,"VANDALISM - FELONY ($400 & OVER, ALL CHURCH VANDALISMS)","1822 0329 1300",40,"F","H",122,"VEHICLE, PASSENGER/TRUCK",NA,"","IC","Invest Cont",740,NA,NA,NA,"1400 W  JEFFERSON                    BL","",34.0219,-118.2959
221307418,"03/04/2022 12:00:00 AM","03/04/2022 12:00:00 AM",1800,13,"Newton",1333,1,236,"INTIMATE PARTNER - AGGRAVATED ASSAULT","1814 0913 2000 0416",19,"F","B",707,"GARAGE/CARPORT",500,"UNKNOWN WEAPON/OTHER WEAPON","AA","Adult Arrest",236,NA,NA,NA,"900 E  32ND                         ST","",34.0153,-118.2604
221708607,"04/12/2022 12:00:00 AM","04/10/2022 12:00:00 AM",200,17,"Devonshire",1782,1,331,"THEFT FROM MOTOR VEHICLE - GRAND ($950.01 AND OVER)","1602 0344 0385",37,"F","W",121,"YARD (RESIDENTIAL/BUSINESS)",NA,"","IC","Invest Cont",331,NA,NA,NA,"19400    PARTHENIA                    ST","",34.2312,-118.5632
200611258,"06/10/2020 12:00:00 AM","06/09/2020 12:00:00 AM",2200,6,"Hollywood",656,1,230,"ASSAULT WITH DEADLY WEAPON, AGGRAVATED ASSAULT","0344 0329 1307 1609 0302 1100 0386 0450 0906 0913",23,"M","H",101,"STREET",109,"SEMI-AUTOMATIC PISTOL","AO","Adult Other",230,420,740,NA,"WILCOX                       AV","ROMAINE                      ST",34.0889,-118.331
210704231,"01/07/2021 12:00:00 AM","01/07/2021 12:00:00 AM",1700,7,"Wilshire",789,1,230,"ASSAULT WITH DEADLY WEAPON, AGGRAVATED ASSAULT","0416 0417 0446 1300 2034 1822 0406",35,"M","H",102,"SIDEWALK",400,"STRONG-ARM (HANDS, FIST, FEET OR BODILY FORCE)","IC","Invest Cont",230,NA,NA,NA,"2000    6TH                          AV","",34.0386,-118.3237
200807442,"03/17/2020 12:00:00 AM","03/12/2020 12:00:00 AM",800,8,"West LA",898,2,662,"BUNCO, GRAND THEFT","0701",24,"F","B",501,"SINGLE FAMILY DWELLING",NA,"","IC","Invest Cont",662,NA,NA,NA,"3100 S  CANFIELD                     AV","",34.0332,-118.3939
200715146,"10/21/2020 12:00:00 AM","10/20/2020 12:00:00 AM",2330,7,"Wilshire",723,1,310,"BURGLARY","1822 0314 1607 0344 1402",60,"F","W",501,"SINGLE FAMILY DWELLING",NA,"","IC","Invest Cont",310,998,NA,NA,"100 N  EDINBURGH                    AV","",34.0743,-118.3637
200604550,"01/12/2020 12:00:00 AM","01/12/2020 12:00:00 AM",1800,6,"Hollywood",644,1,310,"BURGLARY","0344 1822",29,"F","B",501,"SINGLE FAMILY DWELLING",NA,"","IC","Invest Cont",310,NA,NA,NA,"1400 N  FULLER                       AV","",34.0962,-118.3496
211704722,"12/01/2020 12:00:00 AM","12/01/2020 12:00:00 AM",1255,17,"Devonshire",1705,2,354,"THEFT OF IDENTITY","0930",38,"F","W",501,"SINGLE FAMILY DWELLING",NA,"","IC","Invest Cont",354,NA,NA,NA,"12800    NEON                         WY","",34.3024,-118.5174
201615267,"12/01/2020 12:00:00 AM","11/29/2020 12:00:00 AM",10,16,"Foothill",1602,2,354,"THEFT OF IDENTITY","0930 1822",52,"M","O",101,"STREET",NA,"","AA","Adult Arrest",354,NA,NA,NA,"GLENOAKS","MONTFORD",34.2781,-118.4164
220212261,"06/22/2022 12:00:00 AM","06/20/2022 12:00:00 AM",130,2,"Rampart",299,1,420,"THEFT FROM MOTOR VEHICLE - PETTY ($950 & UNDER)","",0,"","",101,"STREET",NA,"","IC","Invest Cont",420,NA,NA,NA,"1000    VENICE                       BL","",34.0407,-118.2773
201713855,"10/01/2020 12:00:00 AM","10/01/2020 12:00:00 AM",1820,17,"Devonshire",1728,1,210,"ROBBERY","0416 0344 1822 1300 1823 0346",26,"M","W",501,"SINGLE FAMILY DWELLING",400,"STRONG-ARM (HANDS, FIST, FEET OR BODILY FORCE)","AO","Adult Other",210,NA,NA,NA,"11100    CABRIOLE                     AV","",34.2713,-118.5403
201904665,"01/15/2020 12:00:00 AM","01/15/2020 12:00:00 AM",1015,19,"Mission",1994,2,626,"INTIMATE PARTNER - SIMPLE ASSAULT","2000 0305 0419 0421",39,"F","H",252,"COFFEE SHOP (STARBUCKS, COFFEE BEAN, PEET'S, ETC.)",400,"STRONG-ARM (HANDS, FIST, FEET OR BODILY FORCE)","IC","Invest Cont",626,NA,NA,NA,"14600    ROSCOE                       BL","",34.2215,-118.4507
220317982,"10/05/2022 12:00:00 AM","10/05/2022 12:00:00 AM",1500,3,"Southwest",334,2,664,"BUNCO, PETTY THEFT","0800 0701 1822 0344",26,"F","O",501,"SINGLE FAMILY DWELLING",NA,"","IC","Invest Cont",664,NA,NA,NA,"3400    EDGEHILL                     DR","",34.0256,-118.3305
210219023,"12/17/2021 12:00:00 AM","12/17/2021 12:00:00 AM",557,2,"Rampart",251,1,310,"BURGLARY","0344 1607 1300 1309",0,"X","X",248,"CELL PHONE STORE",NA,"","IC","Invest Cont",310,NA,NA,NA,"2600 W  6TH                          ST","",34.062,-118.2804
210905196,"02/01/2021 12:00:00 AM","01/31/2021 12:00:00 AM",1000,9,"Van Nuys",926,1,510,"VEHICLE - STOLEN","",0,"","",101,"STREET",NA,"","IC","Invest Cont",510,NA,NA,NA,"6600    CANTALOUPE                   AV","",34.1903,-118.4345
211012848,"09/29/2021 12:00:00 AM","09/25/2021 12:00:00 AM",1800,10,"West Valley",1018,1,510,"VEHICLE - STOLEN","",0,"","",101,"STREET",NA,"","IC","Invest Cont",510,NA,NA,NA,"7400    HASKELL                      AV","",34.2074,-118.4794
210808618,"04/25/2021 12:00:00 AM","04/25/2021 12:00:00 AM",1640,8,"West LA",849,2,888,"TRESPASSING","1501",53,"M","H",108,"PARKING LOT",NA,"","IC","Invest Cont",888,NA,NA,NA,"1600 W  PICO                         BL","",34.0583,-118.3799
221816641,"08/31/2022 12:00:00 AM","08/31/2022 12:00:00 AM",2030,18,"Southeast",1842,2,626,"INTIMATE PARTNER - SIMPLE ASSAULT","2000 0400 0444 0913 1814 2002 0416 0445 0443 2021",47,"F","H",502,"MULTI-UNIT DWELLING (APARTMENT, DUPLEX, ETC)",400,"STRONG-ARM (HANDS, FIST, FEET OR BODILY FORCE)","IC","Invest Cont",626,NA,NA,NA,"100 E  110TH                        ST","",33.9357,-118.2739
221010576,"06/16/2022 12:00:00 AM","06/16/2022 12:00:00 AM",1330,10,"West Valley",1024,2,237,"CHILD NEGLECT (SEE 300 W.I.C.)","0913 0552 0400",2,"F","O",104,"DRIVEWAY",400,"STRONG-ARM (HANDS, FIST, FEET OR BODILY FORCE)","IC","Invest Cont",237,NA,NA,NA,"6600    RESEDA                       BL","",34.1958,-118.5399
220204389,"01/08/2022 12:00:00 AM","12/30/2021 12:00:00 AM",1300,2,"Rampart",285,1,440,"THEFT PLAIN - PETTY ($950 & UNDER)","1822 0394 0344",20,"F","H",502,"MULTI-UNIT DWELLING (APARTMENT, DUPLEX, ETC)",NA,"","IC","Invest Cont",440,NA,NA,NA,"1100 S  BURLINGTON                   AV","",34.0488,-118.2775
211412418,"05/24/2021 12:00:00 AM","05/23/2021 12:00:00 AM",1000,14,"Pacific",1483,2,354,"THEFT OF IDENTITY","1501",33,"M","C",710,"OTHER PREMISE",NA,"","IC","Invest Cont",354,NA,NA,NA,"8000    REDLANDS                     ST","",33.9575,-118.4353
211405113,"01/18/2021 12:00:00 AM","01/17/2021 12:00:00 AM",1200,14,"Pacific",1441,1,310,"BURGLARY","1606 0344",57,"M","W",501,"SINGLE FAMILY DWELLING",400,"STRONG-ARM (HANDS, FIST, FEET OR BODILY FORCE)","AO","Adult Other",310,NA,NA,NA,"500    28TH                         AV","",33.9837,-118.4633
201304335,"01/07/2020 12:00:00 AM","01/07/2020 12:00:00 AM",1215,13,"Newton",1317,2,624,"BATTERY - SIMPLE ASSAULT","0444",38,"M","H",203,"OTHER BUSINESS",400,"STRONG-ARM (HANDS, FIST, FEET OR BODILY FORCE)","IC","Invest Cont",624,NA,NA,NA,"1900 S  ALAMEDA                      ST","",34.0245,-118.244
211908148,"04/30/2021 12:00:00 AM","01/01/2021 12:00:00 AM",1555,19,"Mission",1906,2,354,"THEFT OF IDENTITY","1822 0354",41,"F","H",501,"SINGLE FAMILY DWELLING",NA,"","IC","Invest Cont",354,NA,NA,NA,"13300    ASTORIA                      ST","",34.3248,-118.4239
220119203,"08/27/2022 12:00:00 AM","08/26/2022 12:00:00 AM",2200,1,"Central",111,1,331,"THEFT FROM MOTOR VEHICLE - GRAND ($950.01 AND OVER)","0329 1822 0344 1402 1608",30,"F","H",123,"PARKING UNDERGROUND/BUILDING",NA,"","IC","Invest Cont",331,998,NA,NA,"500 N  BROADWAY","",34.058,-118.241
210813538,"08/31/2021 12:00:00 AM","08/30/2021 12:00:00 AM",1000,8,"West LA",852,1,310,"BURGLARY","0321 0344 1822 1607",23,"F","W",501,"SINGLE FAMILY DWELLING",NA,"","IC","Invest Cont",310,NA,NA,NA,"1500    BROCKTON                     AV","",34.0409,-118.4609
200813163,"08/20/2020 12:00:00 AM","08/20/2020 12:00:00 AM",1820,8,"West LA",829,2,888,"TRESPASSING","0100 0432",32,"M","W",502,"MULTI-UNIT DWELLING (APARTMENT, DUPLEX, ETC)",NA,"","IC","Invest Cont",888,NA,NA,NA,"10300    WILSHIRE                     BL","",34.0679,-118.4262
211605615,"02/26/2021 12:00:00 AM","02/25/2021 12:00:00 AM",1800,16,"Foothill",1642,1,510,"VEHICLE - STOLEN","",0,"","",101,"STREET",NA,"","IC","Invest Cont",510,NA,NA,NA,"HADDON","GAIN                         ST",34.2567,-118.4241
220708868,"05/05/2022 12:00:00 AM","05/05/2022 12:00:00 AM",1606,7,"Wilshire",701,2,888,"TRESPASSING","1501 1822",71,"M","W",121,"YARD (RESIDENTIAL/BUSINESS)",NA,"","IC","Invest Cont",888,NA,NA,NA,"500 N  CRESCENT HEIGHTS             BL","",34.0801,-118.3659
220606102,"02/16/2022 12:00:00 AM","02/05/2022 12:00:00 AM",1134,6,"Hollywood",644,1,440,"THEFT PLAIN - PETTY ($950 & UNDER)","0349 1822 0394",27,"F","B",502,"MULTI-UNIT DWELLING (APARTMENT, DUPLEX, ETC)",NA,"","IC","Invest Cont",440,NA,NA,NA,"1300 N  FORMOSA                      AV","",34.0944,-118.3463
210506920,"03/15/2021 12:00:00 AM","03/15/2021 12:00:00 AM",2247,5,"Harbor",521,2,745,"VANDALISM - MISDEAMEANOR ($399 OR UNDER)","0311 0329",32,"F","B",502,"MULTI-UNIT DWELLING (APARTMENT, DUPLEX, ETC)",NA,"","AO","Adult Other",745,NA,NA,NA,"2200 S  BLUE BUTTERFLY               WY","",33.7801,-118.3004
211415331,"07/20/2021 12:00:00 AM","07/20/2021 12:00:00 AM",2115,14,"Pacific",1452,2,888,"TRESPASSING","2004",26,"M","W",501,"SINGLE FAMILY DWELLING",NA,"","IC","Invest Cont",888,NA,NA,NA,"3100 S  STRONGS                      DR","",33.9798,-118.4641
220615429,"08/29/2022 12:00:00 AM","08/26/2022 12:00:00 AM",1800,6,"Hollywood",659,2,624,"BATTERY - SIMPLE ASSAULT","0400 0416 0913 1818",53,"F","H",510,"NURSING/CONVALESCENT/RETIREMENT HOME",500,"UNKNOWN WEAPON/OTHER WEAPON","IC","Invest Cont",624,NA,NA,NA,"5100 W  SUNSET                       BL","",34.0981,-118.3005
201107718,"03/25/2020 12:00:00 AM","03/25/2020 12:00:00 AM",700,11,"Northeast",1139,1,510,"VEHICLE - STOLEN","",0,"","",101,"STREET",NA,"","IC","Invest Cont",510,NA,NA,NA,"6300    ARROYO GLEN                  ST","",34.1128,-118.1845
220705853,"02/18/2022 12:00:00 AM","02/17/2022 12:00:00 AM",2314,7,"Wilshire",724,1,310,"BURGLARY","1609 0344 1822",0,"X","X",415,"THE GROVE",NA,"","IC","Invest Cont",310,NA,NA,NA,"100    THE GROVE                    DR","",34.0736,-118.3563
211309640,"05/13/2021 12:00:00 AM","05/11/2021 12:00:00 AM",2000,13,"Newton",1372,1,121,"RAPE, FORCIBLE","0500 1415 1402 0527 1822",24,"F","H",109,"PARK/PLAYGROUND",400,"STRONG-ARM (HANDS, FIST, FEET OR BODILY FORCE)","AA","Adult Arrest",121,998,NA,NA,"5400    AVALON                       BL","",33.9923,-118.2696
220505596,"02/10/2022 12:00:00 AM","02/10/2022 12:00:00 AM",1700,5,"Harbor",529,2,625,"OTHER ASSAULT","0448 0400 1310 1822",68,"M","W",101,"STREET",400,"STRONG-ARM (HANDS, FIST, FEET OR BODILY FORCE)","IC","Invest Cont",625,NA,NA,NA,"PACIFIC COAST","BLINN",33.7753,-118.2456
211216020,"07/19/2021 12:00:00 AM","06/27/2021 12:00:00 AM",100,12,"77th Street",1257,1,210,"ROBBERY","0342 0216 1300 0416 0411 0344 1822",28,"F","B",101,"STREET",200,"KNIFE WITH BLADE 6INCHES OR LESS","IC","Invest Cont",210,NA,NA,NA,"CIMARRON                     ST","MANCHESTER                   AV",33.9693,-118.285
201505943,"02/08/2020 12:00:00 AM","02/06/2020 12:00:00 AM",1930,15,"N Hollywood",1525,2,627,"CHILD ABUSE (PHYSICAL) - SIMPLE ASSAULT","0913 1414 1206 0416 0553 1259",16,"F","H",502,"MULTI-UNIT DWELLING (APARTMENT, DUPLEX, ETC)",301,"BELT FLAILING INSTRUMENT/CHAIN","IC","Invest Cont",627,NA,NA,NA,"11800    KITTRIDGE                    ST","",34.1903,-118.39
200112149,"05/25/2020 12:00:00 AM","05/25/2020 12:00:00 AM",1,1,"Central",142,1,330,"BURGLARY FROM VEHICLE","1307 1609 0329 1822 1414 0344",25,"M","B",102,"SIDEWALK",NA,"","IC","Invest Cont",330,NA,NA,NA,"4TH                          ST","FLOWER                       ST",34.053,-118.2548
221209266,"04/04/2022 12:00:00 AM","04/02/2022 12:00:00 AM",118,12,"77th Street",1251,2,354,"THEFT OF IDENTITY","0100 1822 0922",27,"F","B",501,"SINGLE FAMILY DWELLING",NA,"","IC","Invest Cont",354,NA,NA,NA,"3200 W  73RD                         ST","",33.9736,-118.3286
211710882,"07/22/2021 12:00:00 AM","07/21/2021 12:00:00 AM",2100,17,"Devonshire",1764,1,330,"BURGLARY FROM VEHICLE","0377 1609 0344",38,"M","O",123,"PARKING UNDERGROUND/BUILDING",NA,"","IC","Invest Cont",330,NA,NA,NA,"19500    NORDHOFF                     ST","",34.2355,-118.5573
211913502,"09/19/2021 12:00:00 AM","09/18/2021 12:00:00 AM",2300,19,"Mission",1966,1,330,"BURGLARY FROM VEHICLE","0344",45,"M","H",101,"STREET",NA,"","IC","Invest Cont",330,NA,NA,NA,"TERRA BELLA                  ST","WAKEFIELD                    AV",34.2366,-118.4481
200514258,"09/17/2020 12:00:00 AM","09/16/2020 12:00:00 AM",125,5,"Harbor",562,2,354,"THEFT OF IDENTITY","0926 0930 0929",61,"F","W",501,"SINGLE FAMILY DWELLING",NA,"","IC","Invest Cont",354,NA,NA,NA,"1200 W  11TH                         ST","",33.7338,-118.3034
201222677,"10/15/2020 12:00:00 AM","10/15/2020 12:00:00 AM",1815,12,"77th Street",1253,2,626,"INTIMATE PARTNER - SIMPLE ASSAULT","2000 0444 1814 1206 0446",60,"F","B",501,"SINGLE FAMILY DWELLING",400,"STRONG-ARM (HANDS, FIST, FEET OR BODILY FORCE)","IC","Invest Cont",626,NA,NA,NA,"1800 W  78TH                         ST","",33.9691,-118.3096
212007814,"04/08/2021 12:00:00 AM","04/07/2021 12:00:00 AM",1800,20,"Olympic",2019,1,510,"VEHICLE - STOLEN","",0,"","",707,"GARAGE/CARPORT",NA,"","IC","Invest Cont",510,NA,NA,NA,"100 S  VIRGIL                       AV","",34.0732,-118.2868
200504056,"01/02/2020 12:00:00 AM","01/01/2020 12:00:00 AM",2000,5,"Harbor",562,1,330,"BURGLARY FROM VEHICLE","0344 1300 1302 0358",47,"M","H",411,"PET STORE",NA,"","IC","Invest Cont",330,NA,NA,NA,"1300 S  LELAND                       ST","",33.7326,-118.305
201105922,"02/12/2020 12:00:00 AM","02/12/2020 12:00:00 AM",1410,11,"Northeast",1148,1,440,"THEFT PLAIN - PETTY ($950 & UNDER)","1300 0344 0448 0400 1601",66,"F","H",402,"MARKET",400,"STRONG-ARM (HANDS, FIST, FEET OR BODILY FORCE)","IC","Invest Cont",440,NA,NA,NA,"100 W  AVENUE 45","",34.096,-118.2073
200906426,"02/24/2020 12:00:00 AM","02/23/2020 12:00:00 AM",2000,9,"Van Nuys",989,2,626,"INTIMATE PARTNER - SIMPLE ASSAULT","2000 1813 1814 0416",26,"M","H",101,"STREET",400,"STRONG-ARM (HANDS, FIST, FEET OR BODILY FORCE)","AO","Adult Other",626,NA,NA,NA,"WOODMAN","VENTURA",34.148,-118.4312
211612681,"10/21/2021 12:00:00 AM","10/21/2021 12:00:00 AM",1305,16,"Foothill",1676,1,210,"ROBBERY","0444 0344 0945",58,"F","H",502,"MULTI-UNIT DWELLING (APARTMENT, DUPLEX, ETC)",400,"STRONG-ARM (HANDS, FIST, FEET OR BODILY FORCE)","IC","Invest Cont",210,NA,NA,NA,"8600    GLENOAKS                     BL","",34.2265,-118.3632
201115983,"11/22/2020 12:00:00 AM","11/20/2020 12:00:00 AM",1555,11,"Northeast",1119,1,230,"ASSAULT WITH DEADLY WEAPON, AGGRAVATED ASSAULT","0919 0400 0416 1309 0329",39,"M","W",101,"STREET",400,"STRONG-ARM (HANDS, FIST, FEET OR BODILY FORCE)","AA","Adult Arrest",230,740,NA,NA,"YOSEMITE","VINCENT",34.1348,-118.1928
202111300,"07/06/2020 12:00:00 AM","07/06/2020 12:00:00 AM",1130,21,"Topanga",2143,1,761,"BRANDISH WEAPON","0919 1202 1822 0334",73,"M","W",101,"STREET",102,"HAND GUN","IC","Invest Cont",761,NA,NA,NA,"VICTORY                      BL","PLATT                        AV",34.1883,-118.6274
201313287,"07/03/2020 12:00:00 AM","07/02/2020 12:00:00 AM",1420,13,"Newton",1307,1,210,"ROBBERY","0344 0432 0334 0337 0913",74,"M","B",501,"SINGLE FAMILY DWELLING",200,"KNIFE WITH BLADE 6INCHES OR LESS","IC","Invest Cont",210,NA,NA,NA,"800 E  7TH                          ST","",34.039,-118.2444
210117064,"09/18/2021 12:00:00 AM","09/18/2021 12:00:00 AM",1930,1,"Central",154,2,902,"VIOLATION OF TEMPORARY RESTRAINING ORDER","2038",54,"F","B",502,"MULTI-UNIT DWELLING (APARTMENT, DUPLEX, ETC)",NA,"","IC","Invest Cont",902,NA,NA,NA,"500 S  LOS ANGELES                  ST","",34.046,-118.2493
210814495,"09/26/2021 12:00:00 AM","09/26/2021 12:00:00 AM",25,8,"West LA",817,2,740,"VANDALISM - FELONY ($400 & OVER, ALL CHURCH VANDALISMS)","1822 1609 0329",0,"X","X",716,"THEATRE/MOVIE",400,"STRONG-ARM (HANDS, FIST, FEET OR BODILY FORCE)","AA","Adult Arrest",740,NA,NA,NA,"LE CONTE                     AV","BROXTON                      AV",34.0637,-118.447
211423045,"12/15/2021 12:00:00 AM","12/11/2021 12:00:00 AM",1,14,"Pacific",1414,2,354,"THEFT OF IDENTITY","1501",51,"M","O",101,"STREET",NA,"","IC","Invest Cont",354,NA,NA,NA,"VERNON                       AV","7TH                          AV",33.9998,-118.4645
212005341,"02/06/2021 12:00:00 AM","02/05/2021 12:00:00 AM",1430,20,"Olympic",2071,2,900,"VIOLATION OF COURT ORDER","0913 2038",82,"F","W",101,"STREET",NA,"","IC","Invest Cont",900,NA,NA,NA,"1500 S  VAN NESS                     AV","",34.0436,-118.3157
211813003,"07/03/2021 12:00:00 AM","07/03/2021 12:00:00 AM",1700,18,"Southeast",1834,1,820,"ORAL COPULATION","0507 0540 0545 1402 1822 1300 1415 0448 0419 0523",22,"M","H",108,"PARKING LOT",400,"STRONG-ARM (HANDS, FIST, FEET OR BODILY FORCE)","IC","Invest Cont",820,998,NA,NA,"10400 S  CENTRAL                      AV","",33.9398,-118.2611
210804006,"12/31/2020 12:00:00 AM","12/31/2020 12:00:00 AM",1300,8,"West LA",842,1,480,"BIKE - STOLEN","1822 0344 2034 1218",56,"M","W",102,"SIDEWALK",NA,"","IC","Invest Cont",480,NA,NA,NA,"GRANVILLE","OLYMPIC",34.0465,-118.4588
211513393,"08/19/2021 12:00:00 AM","08/17/2021 12:00:00 AM",2000,15,"N Hollywood",1541,1,330,"BURGLARY FROM VEHICLE","0344 1300",42,"M","W",101,"STREET",NA,"","IC","Invest Cont",330,NA,NA,NA,"12500    HESBY                        ST","",34.1619,-118.4062
210411003,"07/23/2021 12:00:00 AM","07/23/2021 12:00:00 AM",700,4,"Hollenbeck",479,1,310,"BURGLARY","0342 0344 0329 1607",0,"M","W",210,"RESTAURANT/FAST FOOD",NA,"","IC","Invest Cont",310,NA,NA,NA,"3700    WHITTIER                     BL","",34.0244,-118.1934
201117072,"12/29/2020 12:00:00 AM","12/24/2020 12:00:00 AM",1600,11,"Northeast",1144,1,510,"VEHICLE - STOLEN","",0,"","",101,"STREET",NA,"","IC","Invest Cont",510,NA,NA,NA,"2700    LAKE WOOD                    AV","",34.1053,-118.2643
201223141,"10/23/2020 12:00:00 AM","10/22/2020 12:00:00 AM",1900,12,"77th Street",1218,1,510,"VEHICLE - STOLEN","",0,"","",101,"STREET",NA,"","AA","Adult Arrest",510,NA,NA,NA,"600 W  52ND                         PL","",33.995,-118.2842
220613238,"07/15/2022 12:00:00 AM","07/14/2022 12:00:00 AM",2215,6,"Hollywood",643,1,330,"BURGLARY FROM VEHICLE","0344 1822 1501 1300 1307 0329 1609",36,"M","B",101,"STREET",NA,"","IC","Invest Cont",330,NA,NA,NA,"7200 W  SUNSET                       BL","",34.1007,-118.3494
201716378,"12/17/2020 12:00:00 AM","12/17/2020 12:00:00 AM",645,17,"Devonshire",1708,2,946,"OTHER MISCELLANEOUS CRIME","1501",37,"M","W",104,"DRIVEWAY",NA,"","IC","Invest Cont",946,NA,NA,NA,"11600    ODESSA                       AV","",34.2822,-118.4912
202111401,"07/09/2020 12:00:00 AM","07/08/2020 12:00:00 AM",1600,21,"Topanga",2158,1,310,"BURGLARY","1609 0344",29,"M","B",203,"OTHER BUSINESS",NA,"","IC","Invest Cont",310,NA,NA,NA,"6000    DE SOTO                      AV","",34.1792,-118.5904
211419441,"10/04/2021 12:00:00 AM","10/04/2021 12:00:00 AM",820,14,"Pacific",1413,2,886,"DISTURBING THE PEACE","1501",34,"F","W",101,"STREET",NA,"","IC","Invest Cont",886,NA,NA,NA,"7TH","ROSE",33.9956,-118.4722
200611145,"06/07/2020 12:00:00 AM","06/06/2020 12:00:00 AM",1700,6,"Hollywood",643,1,510,"VEHICLE - STOLEN","",0,"","",123,"PARKING UNDERGROUND/BUILDING",NA,"","IC","Invest Cont",510,NA,NA,NA,"1700    CAMINO PALMERO               ST","",34.1016,-118.35
211515715,"10/08/2021 12:00:00 AM","10/06/2021 12:00:00 AM",1557,15,"N Hollywood",1585,1,310,"BURGLARY","0344 1822",0,"M","O",502,"MULTI-UNIT DWELLING (APARTMENT, DUPLEX, ETC)",NA,"","IC","Invest Cont",310,NA,NA,NA,"11000    AQUA VISTA                   ST","",34.145,-118.3706
210708855,"05/19/2021 12:00:00 AM","05/19/2021 12:00:00 AM",1725,7,"Wilshire",737,1,440,"THEFT PLAIN - PETTY ($950 & UNDER)","0325",20,"M","O",203,"OTHER BUSINESS",NA,"","AO","Adult Other",440,NA,NA,NA,"700 S  LA BREA                      AV","",34.062,-118.3441
202018379,"12/14/2020 12:00:00 AM","12/14/2020 12:00:00 AM",1500,20,"Olympic",2036,1,230,"ASSAULT WITH DEADLY WEAPON, AGGRAVATED ASSAULT","1218 0913 0906 1816 0445 0411 0421 0448 0429 0408",40,"M","H",102,"SIDEWALK",207,"OTHER KNIFE","IC","Invest Cont",230,NA,NA,NA,"7TH","BERENDO",34.0598,-118.2941
201221556,"09/28/2020 12:00:00 AM","09/28/2020 12:00:00 AM",1,12,"77th Street",1243,1,230,"ASSAULT WITH DEADLY WEAPON, AGGRAVATED ASSAULT","1822 0411",27,"M","B",710,"OTHER PREMISE",500,"UNKNOWN WEAPON/OTHER WEAPON","IC","Invest Cont",230,NA,NA,NA,"62ND                         ST","WESTERN                      AV",33.9834,-118.309
211509905,"05/31/2021 12:00:00 AM","05/28/2021 12:00:00 AM",1000,15,"N Hollywood",1519,2,956,"LETTERS, LEWD  -  TELEPHONE CALLS, LEWD","1906",45,"F","B",502,"MULTI-UNIT DWELLING (APARTMENT, DUPLEX, ETC)",NA,"","IC","Invest Cont",956,NA,NA,NA,"6700 N  CLYBOURN                     AV","",34.1922,-118.3637
200509339,"05/11/2020 12:00:00 AM","05/11/2020 12:00:00 AM",1945,5,"Harbor",529,1,331,"THEFT FROM MOTOR VEHICLE - GRAND ($950.01 AND OVER)","0354 0344 1300",52,"M","H",203,"OTHER BUSINESS",NA,"","IC","Invest Cont",331,NA,NA,NA,"1900 E  I                            ST","",33.7824,-118.2389
211112506,"09/01/2021 12:00:00 AM","03/30/2021 12:00:00 AM",1215,11,"Northeast",1133,1,310,"BURGLARY","0344 1605",31,"M","O",221,"PUBLIC STORAGE",NA,"","IC","Invest Cont",310,NA,NA,NA,"2900    CASITAS                      AV","",34.1116,-118.2467
211710609,"07/13/2021 12:00:00 AM","07/12/2021 12:00:00 AM",2056,17,"Devonshire",1768,1,331,"THEFT FROM MOTOR VEHICLE - GRAND ($950.01 AND OVER)","1602 0344 0385",59,"M","W",504,"OTHER RESIDENCE",NA,"","IC","Invest Cont",331,NA,NA,NA,"17500    LABRADOR                     ST","",34.2495,-118.5156
220306190,"02/17/2022 12:00:00 AM","02/17/2022 12:00:00 AM",2025,3,"Southwest",316,2,626,"INTIMATE PARTNER - SIMPLE ASSAULT","0305 0416 0429 0444 0446 0913 1202 1243 1813 2000",65,"F","B",502,"MULTI-UNIT DWELLING (APARTMENT, DUPLEX, ETC)",400,"STRONG-ARM (HANDS, FIST, FEET OR BODILY FORCE)","AA","Adult Arrest",626,NA,NA,NA,"2400 S  WESTERN                      AV","",34.0342,-118.309
210504921,"01/24/2021 12:00:00 AM","01/23/2021 12:00:00 AM",2245,5,"Harbor",565,2,901,"VIOLATION OF RESTRAINING ORDER","0913 1814 2038 2000 1906",47,"F","H",502,"MULTI-UNIT DWELLING (APARTMENT, DUPLEX, ETC)",NA,"","AO","Adult Other",901,NA,NA,NA,"500 W  9TH                          ST","",33.736,-118.2882
202009614,"05/12/2020 12:00:00 AM","05/11/2020 12:00:00 AM",2100,20,"Olympic",2063,1,510,"VEHICLE - STOLEN","",0,"","",101,"STREET",NA,"","IC","Invest Cont",510,NA,NA,NA,"3000    HARRINGTON                   AV","",34.05,-118.3082
200506275,"02/23/2020 12:00:00 AM","02/22/2020 12:00:00 AM",2320,5,"Harbor",558,1,236,"INTIMATE PARTNER - AGGRAVATED ASSAULT","0447 0913 0334 0408 0419 0421 0429 0448 1814 2000",54,"F","H",501,"SINGLE FAMILY DWELLING",200,"KNIFE WITH BLADE 6INCHES OR LESS","AA","Adult Arrest",236,NA,NA,NA,"400 W  SANTA CRUZ                   ST","",33.7442,-118.2857
211913469,"09/18/2021 12:00:00 AM","09/16/2021 12:00:00 AM",1230,19,"Mission",1962,2,354,"THEFT OF IDENTITY","0926 0930 0929",68,"F","F",501,"SINGLE FAMILY DWELLING",NA,"","IC","Invest Cont",354,NA,NA,NA,"9100    NOBLE                        AV","",34.2355,-118.461
200106874,"02/11/2020 12:00:00 AM","02/05/2020 12:00:00 AM",1200,1,"Central",182,1,330,"BURGLARY FROM VEHICLE","1307 1822 0329 1609 0344",30,"M","W",123,"PARKING UNDERGROUND/BUILDING",NA,"","IC","Invest Cont",330,NA,NA,NA,"1200 S  GRAND                        AV","",34.0402,-118.2633
201714271,"10/14/2020 12:00:00 AM","08/14/2020 12:00:00 AM",1200,17,"Devonshire",1752,1,420,"THEFT FROM MOTOR VEHICLE - PETTY ($950 & UNDER)","",0,"","",101,"STREET",NA,"","IC","Invest Cont",420,NA,NA,NA,"10000    ETON                         AV","",34.2522,-118.5951
200911842,"07/02/2020 12:00:00 AM","07/01/2020 12:00:00 AM",2010,9,"Van Nuys",904,2,930,"CRIMINAL THREATS - NO WEAPON DISPLAYED","1912 0421",11,"F","B",501,"SINGLE FAMILY DWELLING",511,"VERBAL THREAT","IC","Invest Cont",930,NA,NA,NA,"15200    SHERMAN                      WY","",34.2013,-118.4644
221010077,"06/06/2022 12:00:00 AM","10/28/2021 12:00:00 AM",1205,10,"West Valley",1099,2,354,"THEFT OF IDENTITY","1822 0928",22,"M","W",501,"SINGLE FAMILY DWELLING",NA,"","IC","Invest Cont",354,NA,NA,NA,"16000    ROYAL OAK                    RD","",34.1436,-118.4815
211220011,"09/20/2021 12:00:00 AM","09/20/2021 12:00:00 AM",1200,12,"77th Street",1213,2,624,"BATTERY - SIMPLE ASSAULT","0444",38,"F","O",151,"TOW YARD*",400,"STRONG-ARM (HANDS, FIST, FEET OR BODILY FORCE)","AO","Adult Other",624,NA,NA,NA,"1800 W  SLAUSON                      AV","",33.9921,-118.3108
201708813,"05/05/2020 12:00:00 AM","05/05/2020 12:00:00 AM",800,17,"Devonshire",1761,1,440,"THEFT PLAIN - PETTY ($950 & UNDER)","0344 1202",82,"F","W",501,"SINGLE FAMILY DWELLING",NA,"","IC","Invest Cont",440,NA,NA,NA,"22200    LASSEN                       ST","",34.25,-118.6104
210808632,"04/25/2021 12:00:00 AM","04/24/2021 12:00:00 AM",1400,8,"West LA",842,1,480,"BIKE - STOLEN","0344",26,"F","W",504,"OTHER RESIDENCE",NA,"","IC","Invest Cont",480,NA,NA,NA,"1200 S  WESTGATE                     AV","",34.047,-118.4632
201413066,"06/30/2020 12:00:00 AM","06/29/2020 12:00:00 AM",2200,14,"Pacific",1463,1,330,"BURGLARY FROM VEHICLE","1300 0344",45,"M","W",707,"GARAGE/CARPORT",NA,"","IC","Invest Cont",330,NA,NA,NA,"12400 W  JEFFERSON                    BL","",33.9782,-118.422
211221587,"10/14/2021 12:00:00 AM","10/13/2021 12:00:00 AM",1700,12,"77th Street",1211,2,900,"VIOLATION OF COURT ORDER","1822",75,"M","B",501,"SINGLE FAMILY DWELLING",NA,"","AO","Adult Other",900,NA,NA,NA,"5400    CHESLEY                      AV","",33.9908,-118.3344
202012306,"07/19/2020 12:00:00 AM","07/19/2020 12:00:00 AM",1515,20,"Olympic",2071,2,624,"BATTERY - SIMPLE ASSAULT","1822 1202 0416 0319 0429 0381",61,"M","H",101,"STREET",400,"STRONG-ARM (HANDS, FIST, FEET OR BODILY FORCE)","IC","Invest Cont",624,NA,NA,NA,"VENICE                       BL","E  WESTERN                      AV",34.0436,-118.309
212001009,"09/19/2021 12:00:00 AM","09/19/2021 12:00:00 AM",2355,20,"Olympic",2099,1,230,"ASSAULT WITH DEADLY WEAPON, AGGRAVATED ASSAULT","0450 1822 1309 1407 0309 1100",0,"X","X",102,"SIDEWALK",102,"HAND GUN","IC","Invest Cont",230,998,NA,NA,"ORCHARD                      AV","20TH                         ST",34.0382,-118.2882
220804046,"12/11/2021 12:00:00 AM","12/11/2021 12:00:00 AM",330,8,"West LA",816,1,330,"BURGLARY FROM VEHICLE","0358 1302 1307 0344 0377 1822",47,"M","O",103,"ALLEY",NA,"","IC","Invest Cont",330,NA,NA,NA,"600    MIDVALE                      AV","",34.0673,-118.4534
201610849,"07/06/2020 12:00:00 AM","07/06/2020 12:00:00 AM",1027,16,"Foothill",1675,2,740,"VANDALISM - FELONY ($400 & OVER, ALL CHURCH VANDALISMS)","0329",39,"M","O",203,"OTHER BUSINESS",NA,"","IC","Invest Cont",740,NA,NA,NA,"9100    DE GARMO                     AV","",34.2344,-118.3741
210705584,"02/10/2021 12:00:00 AM","02/10/2021 12:00:00 AM",1115,7,"Wilshire",765,2,626,"INTIMATE PARTNER - SIMPLE ASSAULT","2000 0416",22,"F","B",503,"HOTEL",400,"STRONG-ARM (HANDS, FIST, FEET OR BODILY FORCE)","IC","Invest Cont",626,NA,NA,NA,"1200 S  LA BREA                      AV","",34.0531,-118.3437
201011225,"07/21/2020 12:00:00 AM","05/30/2020 12:00:00 AM",1330,10,"West Valley",1034,2,930,"CRIMINAL THREATS - NO WEAPON DISPLAYED","0421 1804 1906 0913",39,"M","O",502,"MULTI-UNIT DWELLING (APARTMENT, DUPLEX, ETC)",511,"VERBAL THREAT","AO","Adult Other",930,NA,NA,NA,"6100    RESEDA                       BL","",34.1807,-118.536
210304884,"01/21/2021 12:00:00 AM","01/21/2021 12:00:00 AM",1130,3,"Southwest",398,2,745,"VANDALISM - MISDEAMEANOR ($399 OR UNDER)","0329 0561",59,"F","H",501,"SINGLE FAMILY DWELLING",NA,"","IC","Invest Cont",745,NA,NA,NA,"600 W  42ND                         ST","",34.007,-118.2857
211706309,"03/05/2021 12:00:00 AM","02/28/2021 12:00:00 AM",1200,17,"Devonshire",1791,2,956,"LETTERS, LEWD  -  TELEPHONE CALLS, LEWD","1906 0913 1814 2000 0443",35,"F","O",502,"MULTI-UNIT DWELLING (APARTMENT, DUPLEX, ETC)",NA,"","AO","Adult Other",956,NA,NA,NA,"8600    DE SOTO                      AV","",34.227,-118.5885
221608912,"05/03/2022 12:00:00 AM","05/01/2022 12:00:00 AM",1230,16,"Foothill",1611,2,354,"THEFT OF IDENTITY","1822 0377",38,"F","H",501,"SINGLE FAMILY DWELLING",NA,"","IC","Invest Cont",354,NA,NA,NA,"13500    CORCORAN                     ST","",34.2801,-118.4278
202116751,"12/03/2020 12:00:00 AM","11/28/2020 12:00:00 AM",1745,21,"Topanga",2157,1,310,"BURGLARY","0344 1606",49,"M","H",707,"GARAGE/CARPORT",NA,"","IC","Invest Cont",310,NA,NA,NA,"20200    HAMLIN                       ST","",34.1907,-118.5753
220912027,"07/31/2022 12:00:00 AM","07/30/2022 12:00:00 AM",1600,9,"Van Nuys",916,1,510,"VEHICLE - STOLEN","",0,"","",101,"STREET",NA,"","IC","Invest Cont",510,NA,NA,NA,"13900    SHERMAN                      WY","",34.2012,-118.4356
200405465,"02/07/2020 12:00:00 AM","02/06/2020 12:00:00 AM",2000,4,"Hollenbeck",479,2,740,"VANDALISM - FELONY ($400 & OVER, ALL CHURCH VANDALISMS)","1514 2055 0329 0903 1402",23,"F","B",707,"GARAGE/CARPORT",NA,"","IC","Invest Cont",740,946,998,NA,"3500    SISKIYOU                     ST","",34.0256,-118.1992
201610682,"07/02/2020 12:00:00 AM","07/02/2020 12:00:00 AM",1630,16,"Foothill",1621,2,624,"BATTERY - SIMPLE ASSAULT","0416 1822",57,"M","H",402,"MARKET",400,"STRONG-ARM (HANDS, FIST, FEET OR BODILY FORCE)","IC","Invest Cont",624,NA,NA,NA,"10400    LAUREL CANYON                BL","",34.2588,-118.4321
211518762,"12/16/2021 12:00:00 AM","12/15/2021 12:00:00 AM",800,15,"N Hollywood",1533,1,510,"VEHICLE - STOLEN","",0,"","",108,"PARKING LOT",NA,"","IC","Invest Cont",510,NA,NA,NA,"12000    BURBANK                      BL","",34.1751,-118.3943
211204635,"01/09/2021 12:00:00 AM","01/09/2021 12:00:00 AM",2045,12,"77th Street",1266,2,624,"BATTERY - SIMPLE ASSAULT","1202 0913 0554 2003 0400 0416",61,"F","B",502,"MULTI-UNIT DWELLING (APARTMENT, DUPLEX, ETC)",400,"STRONG-ARM (HANDS, FIST, FEET OR BODILY FORCE)","AO","Adult Other",624,NA,NA,NA,"900 W  80TH                         ST","",33.9667,-118.2889
221807816,"03/20/2022 12:00:00 AM","03/20/2022 12:00:00 AM",15,18,"Southeast",1849,2,745,"VANDALISM - MISDEAMEANOR ($399 OR UNDER)","0913 0602 0561 1300 0329 2004",58,"F","B",122,"VEHICLE, PASSENGER/TRUCK",NA,"","AO","Adult Other",745,NA,NA,NA,"2200 E  111TH                        ST","",33.9345,-118.2329
201106838,"03/03/2020 12:00:00 AM","03/02/2020 12:00:00 AM",1900,11,"Northeast",1183,1,310,"BURGLARY","1606 0344",0,"X","X",203,"OTHER BUSINESS",NA,"","IC","Invest Cont",310,NA,NA,NA,"1500    ECHO PARK                    AV","",34.0832,-118.2572
211422147,"11/24/2021 12:00:00 AM","11/18/2021 12:00:00 AM",2315,14,"Pacific",1496,1,330,"BURGLARY FROM VEHICLE","0344 1822 0358",38,"F","W",102,"SIDEWALK",NA,"","IC","Invest Cont",330,NA,NA,NA,"9800    VICKSBURY","",33.9472,-118.3909
200320462,"11/16/2020 12:00:00 AM","11/16/2020 12:00:00 AM",1630,3,"Southwest",376,2,624,"BATTERY - SIMPLE ASSAULT","0913 0416 0446 2021 1202 1309",68,"F","B",101,"STREET",400,"STRONG-ARM (HANDS, FIST, FEET OR BODILY FORCE)","IC","Invest Cont",624,NA,NA,NA,"LEIGHTON                     AV","HOBART                       BL",34.0128,-118.3077
211116432,"12/14/2021 12:00:00 AM","12/10/2021 12:00:00 AM",100,11,"Northeast",1147,1,420,"THEFT FROM MOTOR VEHICLE - PETTY ($950 & UNDER)","",0,"","",101,"STREET",NA,"","IC","Invest Cont",420,NA,NA,NA,"1500    SAN FERNANDO                 RD","",34.0962,-118.2321
220108445,"03/17/2022 12:00:00 AM","03/14/2022 12:00:00 AM",1700,1,"Central",111,1,330,"BURGLARY FROM VEHICLE","0344 1822 1307 1609",41,"F","W",108,"PARKING LOT",NA,"","IC","Invest Cont",330,NA,NA,NA,"600 N  FIGUEROA                     ST","",34.0627,-118.2463
210620939,"12/30/2021 12:00:00 AM","12/29/2021 12:00:00 AM",410,6,"Hollywood",678,1,420,"THEFT FROM MOTOR VEHICLE - PETTY ($950 & UNDER)","1300 1822 0344 1606",53,"F","O",104,"DRIVEWAY",NA,"","IC","Invest Cont",420,NA,NA,NA,"MELROSE HILL","MARATHON",34.0846,-118.306
210319700,"12/01/2021 12:00:00 AM","11/17/2021 12:00:00 AM",2000,3,"Southwest",356,1,330,"BURGLARY FROM VEHICLE","1822 0344 1609 1307 1302",29,"F","H",101,"STREET",NA,"","IC","Invest Cont",330,NA,NA,NA,"S  WESTERN                      AV","W  36TH                         PL",34.0219,-118.3089
